,Neighbourhood,Neighbourhood Latitude,Neighbourhood Longitude,Venue,id,Venue Latitude,Venue Longitude,Venue Category
0,Marble Hill,40.87655077879964,-73.91065965862981,Arturo's,4b4429abf964a52037f225e3,40.87441177110231,-73.91027100981574,Pizza Place
1,Marble Hill,40.87655077879964,-73.91065965862981,Bikram Yoga,4baf59e8f964a520a6f93be3,40.876843690797934,-73.90620384419528,Yoga Studio
2,Marble Hill,40.87655077879964,-73.91065965862981,Tibbett Diner,4b79cc46f964a520c5122fe3,40.8804044222466,-73.90893738006402,Diner
3,Marble Hill,40.87655077879964,-73.91065965862981,Dunkin',4b5357adf964a520319827e3,40.87713584201589,-73.90666550701411,Donut Shop
4,Marble Hill,40.87655077879964,-73.91065965862981,Starbucks,55f81cd2498ee903149fcc64,40.87753134921497,-73.90558216359267,Coffee Shop
5,Marble Hill,40.87655077879964,-73.91065965862981,Astral Fitness & Wellness Center,4cf6ae55d3a8a1cd71a9d243,40.87670526507199,-73.90637207670373,Gym
6,Marble Hill,40.87655077879964,-73.91065965862981,Blink Fitness,55f751ca498eacc0307d1cfe,40.877271495944626,-73.90559491338075,Gym
7,Marble Hill,40.87655077879964,-73.91065965862981,T.J. Maxx,546d31ca498e561c698a0320,40.87723198343352,-73.90504239962168,Department Store
8,Marble Hill,40.87655077879964,-73.91065965862981,Land & Sea Restaurant,4b9c9c6af964a520b27236e3,40.87788463309788,-73.90587282193539,Seafood Restaurant
9,Marble Hill,40.87655077879964,-73.91065965862981,TCR The Club of Riverdale,4a725fa1f964a520f6da1fe3,40.8786283,-73.9145678,Tennis Stadium
10,Marble Hill,40.87655077879964,-73.91065965862981,Rite Aid,4b88e053f964a5208a1132e3,40.875466574434704,-73.90890629016033,Pharmacy
11,Marble Hill,40.87655077879964,-73.91065965862981,Starbucks,57655be738faa66160da7527,40.873754554218515,-73.90861305343668,Coffee Shop
12,Marble Hill,40.87655077879964,-73.91065965862981,Lot Less Closeouts,4b9c9c43f964a520ac7236e3,40.878270422202085,-73.9052646742604,Discount Store
13,Marble Hill,40.87655077879964,-73.91065965862981,Vitamin Shoppe,5631194e498e2de074de661c,40.87716,-73.905632,Supplement Shop
14,Marble Hill,40.87655077879964,-73.91065965862981,Baskin-Robbins,4e4e4517bd4101d0d7a67568,40.87714929478882,-73.90665810372622,Ice Cream Shop
15,Marble Hill,40.87655077879964,-73.91065965862981,Subway Sandwiches,4b4f7b65f964a5205a0827e3,40.8746665302951,-73.9095858429637,Sandwich Place
16,Marble Hill,40.87655077879964,-73.91065965862981,Five Below,56229ff8498e2abb44b6f12b,40.8772564,-73.9049384,Miscellaneous Shop
17,Marble Hill,40.87655077879964,-73.91065965862981,Boston Market,585c205665e7c70a2f1055ea,40.87743,-73.9054121,American Restaurant
18,Marble Hill,40.87655077879964,-73.91065965862981,SUBWAY,4e4ce4debd413c4cc66d05d0,40.878464979323944,-73.9055176422437,Sandwich Place
19,Marble Hill,40.87655077879964,-73.91065965862981,TD Bank,4ec68016cc21b428e1d2060a,40.8794958,-73.9092856,Bank
20,Marble Hill,40.87655077879964,-73.91065965862981,Parrilla Latina,4dfe40df8877333e195b68fc,40.87747294351472,-73.90607346968568,Steakhouse
21,Marble Hill,40.87655077879964,-73.91065965862981,The Children's Place,4c852173dc018cfa2bc3e56c,40.873671591133125,-73.90815619608166,Kids Store
22,Marble Hill,40.87655077879964,-73.91065965862981,Broadway Plaza,53319bb511d2ef06787f02b4,40.87753906779665,-73.90539578168178,Shopping Mall
23,Marble Hill,40.87655077879964,-73.91065965862981,Subway,4d0a529133d6b60cf4cf9985,40.877720351115315,-73.90537973066263,Sandwich Place
24,Marble Hill,40.87655077879964,-73.91065965862981,Terrace View Delicatessen,4ed7956b8b81b2bf28adc714,40.875995,-73.913151,Deli / Bodega
25,Marble Hill,40.87655077879964,-73.91065965862981,Grill 26 at TCR,5012c967e889cf0567e9e2d4,40.878802209517126,-73.9156723022461,American Restaurant
26,Chinatown,40.71561842231432,-73.99427936255978,Cheeky Sandwiches,4b1896caf964a52069d423e3,40.715821,-73.99183,Sandwich Place
27,Chinatown,40.71561842231432,-73.99427936255978,Hotel 50 Bowery NYC,578692f4498e1054905dbde7,40.7159364,-73.9967894,Hotel
28,Chinatown,40.71561842231432,-73.99427936255978,Da Yu Hot Pot 大渝火锅,5d992946dbf3ca0008d05211,40.716735,-73.995752,Hotpot Restaurant
29,Chinatown,40.71561842231432,-73.99427936255978,Kiki's,5521c2ff498ebe2368634187,40.714476082876864,-73.99203609673215,Greek Restaurant
30,Chinatown,40.71561842231432,-73.99427936255978,Bar Belly,503fffabe4b05e5c0eace385,40.71513492837161,-73.99180174375184,Cocktail Bar
31,Chinatown,40.71561842231432,-73.99427936255978,Scarr's Pizza,56c3c626cd106998d2b196d0,40.715335008813696,-73.99164900167455,Pizza Place
32,Chinatown,40.71561842231432,-73.99427936255978,Spicy Village,4db3374590a0843f295fb69b,40.71701,-73.99353,Chinese Restaurant
33,Chinatown,40.71561842231432,-73.99427936255978,Renew Day Spa,4edbbcf729c2b9122a06991c,40.715559,-73.996747,Spa
34,Chinatown,40.71561842231432,-73.99427936255978,The Fat Radish,4c9d482e46978cfa8247967f,40.715322528335335,-73.99194951476356,English Restaurant
35,Chinatown,40.71561842231432,-73.99427936255978,Michaeli Bakery,5cd1aa6a9d746800394f556d,40.71470398399014,-73.99184703826903,Bakery
36,Chinatown,40.71561842231432,-73.99427936255978,Regina's Grocery,59318ce1c5b11c6c16c15d29,40.71545271972335,-73.99162066038105,Sandwich Place
37,Chinatown,40.71561842231432,-73.99427936255978,Museum at Eldridge Street,4b37a3c9f964a5207e4325e3,40.714724,-73.993497,Museum
38,Chinatown,40.71561842231432,-73.99427936255978,Wah Fung Number 1 Fast Food 華豐快飯店,4a96bf8ff964a520ce2620e3,40.71727831655619,-73.99417731304892,Chinese Restaurant
39,Chinatown,40.71561842231432,-73.99427936255978,Xi'an Famous Foods,5894c9a15e56b417cf79e553,40.715231941715004,-73.99726288220869,Chinese Restaurant
40,Chinatown,40.71561842231432,-73.99427936255978,Super Taste (百味蘭州拉面) (Super Taste),49e8ee2ef964a520af651fe3,40.71519757566773,-73.99351118851398,Noodle House
41,Chinatown,40.71561842231432,-73.99427936255978,GoGreen Organic Spa,4afde8eaf964a520f52b22e3,40.717014,-73.995847,Spa
42,Chinatown,40.71561842231432,-73.99427936255978,Metrograph,56bf8899cd102af95de0a66e,40.714998539086416,-73.99103539533131,Indie Movie Theater
43,Chinatown,40.71561842231432,-73.99427936255978,The Sill,507820cee4b0bf54e0b19f39,40.716244858728366,-73.99202728744017,Garden Center
44,Chinatown,40.71561842231432,-73.99427936255978,Dimes,522dfe8b7e4826517408a264,40.71483045349728,-73.99171854350031,American Restaurant
45,Chinatown,40.71561842231432,-73.99427936255978,The Crown,59287ec99cadd905284e4052,40.7159596120117,-73.99671727688867,Roof Deck
46,Chinatown,40.71561842231432,-73.99427936255978,WOON,4c00402d369476b021218f1f,40.71608055070792,-73.99168134841135,Salon / Barbershop
47,Chinatown,40.71561842231432,-73.99427936255978,Forgtmenot,4fd38a04e4b065401a9aaf88,40.714458761321595,-73.9915463794752,New American Restaurant
48,Chinatown,40.71561842231432,-73.99427936255978,Little Sheep Mongolian Hot Pot,57a29225498e96334ebe06d9,40.717638978068614,-73.99518735688363,Hotpot Restaurant
49,Chinatown,40.71561842231432,-73.99427936255978,Teado,4b2ebc57f964a520e3e524e3,40.71718422928588,-73.9948832988739,Bubble Tea Shop
50,Chinatown,40.71561842231432,-73.99427936255978,Sam's Fried Ice Cream,58f25962c5b11c7b5a2192de,40.715814082261154,-73.99145645060749,Ice Cream Shop
51,Chinatown,40.71561842231432,-73.99427936255978,Yaya Tea Garden,4a023f1df964a52040711fe3,40.71617656047733,-73.99490199219241,Tea Room
52,Chinatown,40.71561842231432,-73.99427936255978,Cervo's,59480a78f62e090a3b4d6eb7,40.714762540056384,-73.99145547895715,Spanish Restaurant
53,Chinatown,40.71561842231432,-73.99427936255978,Sky Ting Yoga,5cbe4ef7e679bc002c14f590,40.715352,-73.992666,Yoga Studio
54,Chinatown,40.71561842231432,-73.99427936255978,Chinatown Soup,54e0da16498e94a8f0d9de0f,40.71518422476716,-73.99171537302827,Historic Site
55,Chinatown,40.71561842231432,-73.99427936255978,Chop Suey Club,573151a0498e6b3ca1939e51,40.716192,-73.991359,Boutique
56,Chinatown,40.71561842231432,-73.99427936255978,Ling Kee,4b89ac72f964a520e94a32e3,40.714713,-73.991538,Asian Restaurant
57,Chinatown,40.71561842231432,-73.99427936255978,Off The Bridge,557c335b498ec492c5d567dd,40.715622403162904,-73.99423665033953,Bike Shop
58,Chinatown,40.71561842231432,-73.99427936255978,Coming Soon,535f8dc4498eab7f9ee19f7f,40.715737982481315,-73.99144123696131,Furniture / Home Store
59,Chinatown,40.71561842231432,-73.99427936255978,The Commissary,572bcbaa498e16431ad34a61,40.715004192130635,-73.99100963130398,American Restaurant
60,Chinatown,40.71561842231432,-73.99427936255978,Mian Tian Sing Hair Salon,4bd763f30b779c74411005a0,40.716630177497784,-73.99732784630237,Salon / Barbershop
61,Chinatown,40.71561842231432,-73.99427936255978,Lan Zhou Handmade Noodle & Dumpling,59e7bfa8356b4970aea1be3f,40.71554266411927,-73.99674213744805,Noodle House
62,Chinatown,40.71561842231432,-73.99427936255978,Wayla,5cc4e9d0c876c8002c3010cb,40.7182908437571,-73.99258397519588,Thai Restaurant
63,Chinatown,40.71561842231432,-73.99427936255978,Fong On,5596ea13498e6d86ec66d614,40.714165,-73.9937,Dessert Shop
64,Chinatown,40.71561842231432,-73.99427936255978,Joe's Shanghai 鹿嗚春,5ded51eaf492de00080966ed,40.71566097685305,-73.99669268189086,Shanghai Restaurant
65,Chinatown,40.71561842231432,-73.99427936255978,Bacaro,472a027af964a520ea4b1fe3,40.714467897557796,-73.9915893664933,Italian Restaurant
66,Chinatown,40.71561842231432,-73.99427936255978,The Original Chinatown Ice Cream Factory,3fd66200f964a52033eb1ee3,40.71552144597581,-73.99814520882326,Ice Cream Shop
67,Chinatown,40.71561842231432,-73.99427936255978,2 Bridges Music & Arts,585b2211abc6d60cc3f677df,40.713651,-73.994377,Record Shop
68,Chinatown,40.71561842231432,-73.99427936255978,La Petite Mort,529ccfdc498e49b7aa41cd22,40.715906,-73.991515,Boutique
69,Chinatown,40.71561842231432,-73.99427936255978,New Malaysia,4bb92a9453649c74dacb47fb,40.71578686130709,-73.9969050590344,Malay Restaurant
70,Chinatown,40.71561842231432,-73.99427936255978,oo35mm.com,4faf47ac121dc10e48519a89,40.716604729318206,-73.99789000508754,Cosmetics Shop
71,Chinatown,40.71561842231432,-73.99427936255978,Simple,574f2ae0498ec2a700651b95,40.71814514203096,-73.99198775758143,Asian Restaurant
72,Chinatown,40.71561842231432,-73.99427936255978,Dimes Deli,56152506498ef893010e1273,40.71459195873029,-73.99081729031317,Organic Grocery
73,Chinatown,40.71561842231432,-73.99427936255978,Jing Fong Restaurant 金豐大酒樓,3fd66200f964a520d5e31ee3,40.7158812029412,-73.99720861552515,Dim Sum Restaurant
74,Chinatown,40.71561842231432,-73.99427936255978,Grand Seoul,5b4169604a1cc0002c9bdb7c,40.71744683908609,-73.99425648068716,Korean Restaurant
75,Chinatown,40.71561842231432,-73.99427936255978,Nam Son Vietnamese Restaurant,4a7e3d0cf964a52088f11fe3,40.718214526047454,-73.99434463491643,Vietnamese Restaurant
76,Chinatown,40.71561842231432,-73.99427936255978,Rabbit House,56f73e71498efedad2c1e41c,40.71723302006985,-73.99326860904694,Sake Bar
77,Chinatown,40.71561842231432,-73.99427936255978,Sofar HQ,57d9e582498e1a4d9f13ede7,40.71352253397576,-73.99628875186677,Music Venue
78,Chinatown,40.71561842231432,-73.99427936255978,Apothéke,48c91543f964a520e4511fe3,40.71446997055456,-73.99801834428807,Cocktail Bar
79,Chinatown,40.71561842231432,-73.99427936255978,Hong Kong Supermarket 香港超級市場,4ae4bf7ef964a520bf9d21e3,40.717595732385966,-73.99617253722293,Supermarket
80,Chinatown,40.71561842231432,-73.99427936255978,Great N.Y. Noodletown,3fd66200f964a520b1ea1ee3,40.715039001656855,-73.99694075378208,Chinese Restaurant
81,Chinatown,40.71561842231432,-73.99427936255978,99 Favor Taste 99號餐廳,530ff20411d2a01b7bb8a19c,40.71756,-73.99258,Hotpot Restaurant
82,Chinatown,40.71561842231432,-73.99427936255978,Winnie’s Bar,5c65df02178a2a002c123450,40.71365422614806,-73.99519249882738,Karaoke Bar
83,Chinatown,40.71561842231432,-73.99427936255978,Little Canal,579f74eb498e9a4d6caabeda,40.714317,-73.990361,Coffee Shop
84,Chinatown,40.71561842231432,-73.99427936255978,l'estudio,587996ef0923920c21ea4603,40.71571997526929,-73.99033245121464,American Restaurant
85,Chinatown,40.71561842231432,-73.99427936255978,Golden Diner,5b9686e7d807ee002c498f8d,40.71245135327847,-73.99421274662018,Diner
86,Chinatown,40.71561842231432,-73.99427936255978,Factory Tamal,5885471a0037eb3b6c2973d2,40.71587612490716,-73.99046733643608,Mexican Restaurant
87,Chinatown,40.71561842231432,-73.99427936255978,Phở Grand,4388f700f964a520162b1fe3,40.71782396789147,-73.99280072371246,Vietnamese Restaurant
88,Chinatown,40.71561842231432,-73.99427936255978,The Flower Shop,583e5099b21014593fb544b0,40.718056988544205,-73.9920596318328,American Restaurant
89,Chinatown,40.71561842231432,-73.99427936255978,Kopitiam,5b33b3c74a7aae002cb0611d,40.71397394589247,-73.9908676845466,Malay Restaurant
90,Chinatown,40.71561842231432,-73.99427936255978,V One Salon,4b76d3f4f964a52041622ee3,40.714713401536464,-73.99759144308398,Salon / Barbershop
91,Chinatown,40.71561842231432,-73.99427936255978,Zu Yuan Spa,517d6bede4b031459a5bc942,40.715468729173686,-73.9986270534065,Spa
92,Chinatown,40.71561842231432,-73.99427936255978,Malaysia Beef Jerky,4a00e0a7f964a520bc701fe3,40.71852709684469,-73.99582403497948,Snack Place
93,Chinatown,40.71561842231432,-73.99427936255978,CW Pencil Enterprise,5519bf61498ea5e5dde6cccc,40.71758268630868,-73.99066150188446,Paper / Office Supplies Store
94,Chinatown,40.71561842231432,-73.99427936255978,Peachy's,5ac97a9967f62b7f2980fe0d,40.71445204430717,-73.99799106067414,Cocktail Bar
95,Chinatown,40.71561842231432,-73.99427936255978,Joy's Flowers & Gifts,510eeed5e4b0ae0255d2fcee,40.71560293093889,-73.9899371418026,Gift Shop
96,Chinatown,40.71561842231432,-73.99427936255978,Mr. Fong's,5591ef05498e888b3bbd3ce1,40.71234870755251,-73.99429476756772,Cocktail Bar
97,Chinatown,40.71561842231432,-73.99427936255978,iLook,52699cd7498e879283280c11,40.716163255085476,-73.99815860374045,Optical Shop
98,Chinatown,40.71561842231432,-73.99427936255978,Yi Ji Shi Mo Noodle Corp,5c965dad5455b2002c058659,40.7182541242483,-73.99593030303214,Chinese Restaurant
99,Chinatown,40.71561842231432,-73.99427936255978,Fay Da Bakery,482c4142f964a520d14f1fe3,40.71676493044495,-73.99787389276216,Bakery
100,Chinatown,40.71561842231432,-73.99427936255978,JaJaJa Plantas Mexicana,58f55261419a9e48f4dd0706,40.714197627245426,-73.9901568736444,Mexican Restaurant
101,Chinatown,40.71561842231432,-73.99427936255978,Hwa Yuan,59d828f0916bc1155fde2c04,40.713618266530226,-73.99597818966741,Chinese Restaurant
102,Chinatown,40.71561842231432,-73.99427936255978,Gotham Archery,5af88a7c5a2c91002cf5554c,40.71749853701644,-73.99143013505147,Sports Club
103,Chinatown,40.71561842231432,-73.99427936255978,Reception Bar,5b35982a47f876003901d2e8,40.7163598,-73.9913564,Cocktail Bar
104,Chinatown,40.71561842231432,-73.99427936255978,Vanessa's Dumpling House,49eeaf08f964a52078681fe3,40.718316255518644,-73.99188498001898,Dumpling Restaurant
105,Chinatown,40.71561842231432,-73.99427936255978,Pho Vietnam,53aee20d498e6744c341c483,40.7175304403123,-73.99412803138348,Vietnamese Restaurant
106,Chinatown,40.71561842231432,-73.99427936255978,Cafe Katja,49c3a162f964a52067561fe3,40.71772249773717,-73.9904973426323,Austrian Restaurant
107,Chinatown,40.71561842231432,-73.99427936255978,Shu Jiao Fu Zhou Cuisine 潭頭王福州小吃 (Shu Jiao Fu Zhou Cuisine),4b391426f964a520ae5525e3,40.718432,-73.991701,Dumpling Restaurant
108,Chinatown,40.71561842231432,-73.99427936255978,Shanghai Café Deluxe,46936ee3f964a520d0481fe3,40.71733412016059,-73.9974851229737,Chinese Restaurant
109,Chinatown,40.71561842231432,-73.99427936255978,H Optics,4bbbbbf8e4529521741a55a4,40.7177568898041,-73.99044147871669,Optical Shop
110,Chinatown,40.71561842231432,-73.99427936255978,MooShoes NYC,4af74e12f964a520330822e3,40.71786084384097,-73.99037749508857,Shoe Store
111,Chinatown,40.71561842231432,-73.99427936255978,Big Wong King 大旺,3fd66200f964a520ede41ee3,40.71619620821637,-73.99830311536789,Chinese Restaurant
112,Chinatown,40.71561842231432,-73.99427936255978,Clandestino,43e51ac7f964a520f12e1fe3,40.714639480844234,-73.99101333557718,Bar
113,Chinatown,40.71561842231432,-73.99427936255978,Eye Solutions,4bb79dbb1261d13ad893e798,40.7149274142558,-73.9987735799202,Optical Shop
114,Chinatown,40.71561842231432,-73.99427936255978,Las’ Lap,5aff741595d986002c288ea1,40.717690463104404,-73.99043516357852,Bar
115,Chinatown,40.71561842231432,-73.99427936255978,Zest Ramen,5a506d2318d43b4d678a46ff,40.718144622768186,-73.99197844783383,Ramen Restaurant
116,Chinatown,40.71561842231432,-73.99427936255978,La Bella Ferrara,3fd66200f964a520bce61ee3,40.71744962394581,-73.99837323694786,Bakery
117,Chinatown,40.71561842231432,-73.99427936255978,Nom Wah Tea Parlor,49f220a3f964a520ee691fe3,40.714512,-73.998235,Dim Sum Restaurant
118,Chinatown,40.71561842231432,-73.99427936255978,Bibble & Sip,5ca79ef7c0af570039248a87,40.7180245169494,-73.99756154835737,Dessert Shop
119,Chinatown,40.71561842231432,-73.99427936255978,Orchard Grocer,589bb0fddfa6ff5e1dc8649f,40.71784735323789,-73.99035763050085,Vegetarian / Vegan Restaurant
120,Chinatown,40.71561842231432,-73.99427936255978,The Great Frog,4ee2ab396c25be962ead2329,40.717598653646384,-73.99045659548838,Jewelry Store
121,Chinatown,40.71561842231432,-73.99427936255978,Wu's Wonton King,56a96c6f498e5f93f0a505fd,40.71399163703321,-73.99016885345091,Cantonese Restaurant
122,Chinatown,40.71561842231432,-73.99427936255978,Taiwan Pork Chop House 臺灣武昌好味道,49f61fe9f964a520046c1fe3,40.71436751328666,-73.99786861896594,Taiwanese Restaurant
123,Chinatown,40.71561842231432,-73.99427936255978,Mango Mango Dessert - Bayard St.,51bbe134498e54bba6bfa151,40.71551587230272,-73.99802376966318,Dessert Shop
124,Chinatown,40.71561842231432,-73.99427936255978,Shanghai Asian Cuisine • 上海小館,4abac118f964a520cb8220e3,40.715917808734794,-73.9973114386594,Shanghai Restaurant
125,Chinatown,40.71561842231432,-73.99427936255978,Cafe Grumpy,4df7603c7d8b5f396ac5cfd5,40.71506878269568,-73.98995222774947,Coffee Shop
126,Washington Heights,40.85190252555305,-73.93690027985234,Green Juice Cafe,5547b2fb498e5a61fb5c80de,40.85189793238417,-73.93482699423339,Café
127,Washington Heights,40.85190252555305,-73.93690027985234,The Uptown Garrison,59f76cd528374e40d82f761b,40.85125539385438,-73.93947295544035,Restaurant
128,Washington Heights,40.85190252555305,-73.93690027985234,Highest Natural Point In Manhattan,4bd341d79854d13a834ffd4d,40.852843004488385,-73.93764973534918,Park
129,Washington Heights,40.85190252555305,-73.93690027985234,Saggio Restaurant,4d21107c6e8c37042b58ff9f,40.85142251681508,-73.93976122140884,Italian Restaurant
130,Washington Heights,40.85190252555305,-73.93690027985234,Le Chéile,4e77e40118387f865961f673,40.85145903601843,-73.93998920917511,Café
131,Washington Heights,40.85190252555305,-73.93690027985234,Qmart,561c5c88498ee62a4dc1bc3c,40.85199915943576,-73.93491489398065,Market
132,Washington Heights,40.85190252555305,-73.93690027985234,Burger Heights,53a4688f498e92f6ece47c9f,40.85026807331502,-73.93461812752481,Burger Joint
133,Washington Heights,40.85190252555305,-73.93690027985234,Forever Coffee Bar,5bafd8419de23b002c772a72,40.85043253392718,-73.93660674414312,Coffee Shop
134,Washington Heights,40.85190252555305,-73.93690027985234,Tampopo Ramen,55d65695498ed8dc09c5b010,40.85069287922829,-73.93656823814172,Ramen Restaurant
135,Washington Heights,40.85190252555305,-73.93690027985234,Jin's Superette,4a458c8ef964a52051a81fe3,40.85098865024419,-73.93851430188998,Deli / Bodega
136,Washington Heights,40.85190252555305,-73.93690027985234,181st St Bakery & Deli,4a5b2d43f964a520eaba1fe3,40.85101361568652,-73.93859158137181,Bakery
137,Washington Heights,40.85190252555305,-73.93690027985234,Café Bark,5bafc50b9f8a9f0039c49dd3,40.851353,-73.939896,Pet Café
138,Washington Heights,40.85190252555305,-73.93690027985234,Cabrini Wines,4a626b90f964a52008c41fe3,40.85129218870419,-73.93971626183753,Wine Shop
139,Washington Heights,40.85190252555305,-73.93690027985234,Bennett Wines & Liquor,4e07c4c92271dfa46bb191ac,40.85045575462591,-73.93676854425944,Liquor Store
140,Washington Heights,40.85190252555305,-73.93690027985234,Hudson View Restaurant,4a1a4dcbf964a520927a1fe3,40.850888432086236,-73.93823069541277,Breakfast Spot
141,Washington Heights,40.85190252555305,-73.93690027985234,Bennett Park,4a5924a7f964a520ccb81fe3,40.85296731395129,-73.93787361453009,Park
142,Washington Heights,40.85190252555305,-73.93690027985234,The Pandering Pig,56e213e1498e8b403c8bb16a,40.855226197706585,-73.93779261979789,American Restaurant
143,Washington Heights,40.85190252555305,-73.93690027985234,Vines on Pine,4b9ae9c5f964a52071e235e3,40.8552777479788,-73.93767127156606,Wine Shop
144,Washington Heights,40.85190252555305,-73.93690027985234,Altus Cafe,556faea8498e40d5a03fedce,40.85227048549662,-73.93468709744222,Cocktail Bar
145,Washington Heights,40.85190252555305,-73.93690027985234,Highbridge Park Pool,4bf22c1499d02d7f2efac948,40.849110201463084,-73.93683928010928,Pool
146,Washington Heights,40.85190252555305,-73.93690027985234,Yo Sweets,53caaede498e6db96d6a204f,40.85083131851628,-73.9378569165125,Frozen Yogurt Shop
147,Washington Heights,40.85190252555305,-73.93690027985234,Chittenden Overlook,4ba2ec2df964a520cc2238e3,40.85502970536667,-73.93936157226562,Scenic Lookout
148,Washington Heights,40.85190252555305,-73.93690027985234,Las Tapas,54405a3e498e5d4a84ee266c,40.85523384393846,-73.93728400575858,Tapas Restaurant
149,Washington Heights,40.85190252555305,-73.93690027985234,Fresco's Pizzeria,5503762d498e150bef780584,40.85520157236451,-73.93721648678681,Pizza Place
150,Washington Heights,40.85190252555305,-73.93690027985234,181 Cabrini,49f925bdf964a520656d1fe3,40.851251236650356,-73.94034289599841,New American Restaurant
151,Washington Heights,40.85190252555305,-73.93690027985234,Buunni Coffee,4fe30498e4b08d2f0d752131,40.85519403267616,-73.9377173781395,Café
152,Washington Heights,40.85190252555305,-73.93690027985234,La Casa del Mofongo,4afcba6af964a5206d2522e3,40.85026656753515,-73.93314532362541,Caribbean Restaurant
153,Washington Heights,40.85190252555305,-73.93690027985234,Fort Washington Bakery & Deli,4b5882bef964a520595b28e3,40.85104558248512,-73.93864460474616,Bakery
154,Washington Heights,40.85190252555305,-73.93690027985234,Terravita,5b57bb361acf11002c14ba96,40.848059,-73.937645,New American Restaurant
155,Washington Heights,40.85190252555305,-73.93690027985234,Kismat Indian Restaurant,4ae7876ef964a5201eac21e3,40.855221723964846,-73.93696683600031,Indian Restaurant
156,Washington Heights,40.85190252555305,-73.93690027985234,Poción,57747010cd100bd4dbd9161e,40.847628782562246,-73.93837984011846,Lounge
157,Washington Heights,40.85190252555305,-73.93690027985234,AT&T,4e2c467d227197a112e202a3,40.84949305694621,-73.93456041812897,Mobile Phone Shop
158,Washington Heights,40.85190252555305,-73.93690027985234,The Vitamin Shoppe,4bdb02513904a593cf40489e,40.8501171,-73.9351315,Supplement Shop
159,Washington Heights,40.85190252555305,-73.93690027985234,La Cabana Salvadorena,4c16d2ec5e88c928c5ca2466,40.85433401375745,-73.9336768506694,Latin American Restaurant
160,Washington Heights,40.85190252555305,-73.93690027985234,181 Gourmet Deli,527dd322498e4b070fa0f484,40.851095815370044,-73.93892661241044,Deli / Bodega
161,Washington Heights,40.85190252555305,-73.93690027985234,Yang Garden,4b292f38f964a520939a24e3,40.85530896752232,-73.93783226069496,Chinese Restaurant
162,Washington Heights,40.85190252555305,-73.93690027985234,Monkey Room,419d3780f964a5202c1e1fe3,40.854976932654424,-73.93704592998373,Bar
163,Washington Heights,40.85190252555305,-73.93690027985234,Frank's Market,4a61fbe8f964a520c5c21fe3,40.85533405166097,-73.93716221785515,Grocery Store
164,Washington Heights,40.85190252555305,-73.93690027985234,T-Mobile,4cd421736be6a143f3c69802,40.85046159898994,-73.93528160613425,Mobile Phone Shop
165,Washington Heights,40.85190252555305,-73.93690027985234,Starbucks,4aafdf93f964a520f66420e3,40.85096145,-73.93833015,Coffee Shop
166,Washington Heights,40.85190252555305,-73.93690027985234,Lucky 7 Tapas Bar,4e8d32ebb803ca3dfcbd112e,40.85044675560533,-73.93303027615121,Tapas Restaurant
167,Washington Heights,40.85190252555305,-73.93690027985234,Planet Fitness,53bbf3be498e18ec3a07c2b0,40.84753584822694,-73.93793656267817,Gym / Fitness Center
168,Washington Heights,40.85190252555305,-73.93690027985234,Blink Fitness,5a3ea6ac610f044748e42d0c,40.848562,-73.936941,Gym
169,Washington Heights,40.85190252555305,-73.93690027985234,Dominican Square,4d8f9d9cd265236ab3df2417,40.852424033529694,-73.93488978196986,Plaza
170,Washington Heights,40.85190252555305,-73.93690027985234,Baskin-Robbins,4f997b58d4f21823bb1f5394,40.85044405488296,-73.9373276411219,Ice Cream Shop
171,Washington Heights,40.85190252555305,-73.93690027985234,Punto de Sabor Restaurant,4bb8cdb053649c74465847fb,40.85074,-73.93247,Spanish Restaurant
172,Washington Heights,40.85190252555305,-73.93690027985234,Claire's,5140f01ce4b0fc7cdf26a64f,40.849839,-73.93551500000001,Accessories Store
173,Washington Heights,40.85190252555305,-73.93690027985234,Marisco Centro (Seafood Restaurant & Fish Market),4bdcc53e03be20a1c7b2849b,40.85133231436476,-73.9318637321785,Seafood Restaurant
174,Washington Heights,40.85190252555305,-73.93690027985234,Mambi Steak House Bar & Grill,4acce300f964a520e2c920e3,40.84761525167604,-73.93814343707571,Spanish Restaurant
175,Washington Heights,40.85190252555305,-73.93690027985234,Sushi Yu II,4a4a642cf964a520bdab1fe3,40.8512546772285,-73.93965198989514,Sushi Restaurant
176,Washington Heights,40.85190252555305,-73.93690027985234,Refried Beans Mexican Restaurant,4b2c33d0f964a520aac324e3,40.85503858399724,-73.93703107149052,Mexican Restaurant
177,Washington Heights,40.85190252555305,-73.93690027985234,Moscow on the Hudson,4b3fb916f964a5203fad25e3,40.850958871640614,-73.93864544774256,Grocery Store
178,Washington Heights,40.85190252555305,-73.93690027985234,Golden Star,4b8d55aef964a52050f532e3,40.84972502907437,-73.93625936786627,Chinese Restaurant
179,Washington Heights,40.85190252555305,-73.93690027985234,GNC,58b6fa567d0f6d1bd9244441,40.84952,-73.934875,Supplement Shop
180,Washington Heights,40.85190252555305,-73.93690027985234,Kazza Wine Bar,55739017498eef85afc14a4e,40.84769385813797,-73.93862109202698,Wine Bar
181,Washington Heights,40.85190252555305,-73.93690027985234,El Guanaco Restaurant Pupuseria,4debcfd645dd3993a8af6691,40.848216,-73.938164,Latin American Restaurant
182,Washington Heights,40.85190252555305,-73.93690027985234,Chase Bank,5c40b58e9deb7d00393f7d6e,40.850282,-73.935308,Bank
183,Washington Heights,40.85190252555305,-73.93690027985234,Gap Factory Store,5a31ac0b112c6c3d64dcfae6,40.848928968984765,-73.9385909402616,Clothing Store
184,Washington Heights,40.85190252555305,-73.93690027985234,Spoiled Brats,4ba682cff964a520825939e3,40.85137620658814,-73.93528463692203,Pet Store
185,Washington Heights,40.85190252555305,-73.93690027985234,El Panadero Bakery,4a511650f964a52090b01fe3,40.847986735591036,-73.93477616565791,Bakery
186,Washington Heights,40.85190252555305,-73.93690027985234,SUBWAY,4bd5ecfb5631c9b64bfca430,40.84925011493432,-73.93711605719488,Sandwich Place
187,Washington Heights,40.85190252555305,-73.93690027985234,Pick and Eat,4d2d39b469f42d439d16ad8a,40.84755809230442,-73.93821158547597,Café
188,Washington Heights,40.85190252555305,-73.93690027985234,No. 1 Chinese Restaurant,4b3fe94af964a520e2b125e3,40.85123671099152,-73.93960586750859,Chinese Restaurant
189,Washington Heights,40.85190252555305,-73.93690027985234,Vicky's Diner,49eb56f6f964a520c5661fe3,40.85519031985391,-73.93716531922621,Diner
190,Washington Heights,40.85190252555305,-73.93690027985234,GameStop,56ec88a2498ef62eb86c7017,40.84857,-73.934384,Video Game Store
191,Washington Heights,40.85190252555305,-73.93690027985234,SUBWAY,4c12ba9af1e0b713fd8834bc,40.851752205864,-73.93160322969925,Sandwich Place
192,Washington Heights,40.85190252555305,-73.93690027985234,Hertz,4c6d9b7b4d24b60cd65cd6d8,40.852022,-73.934332,Rental Car Location
193,Washington Heights,40.85190252555305,-73.93690027985234,Floridita Broadway Bakery,4bc33a67461576b0574d7e32,40.84778119590665,-73.93785127878681,Bakery
194,Washington Heights,40.85190252555305,-73.93690027985234,Capital One Bank,4d31e7265c2db60c1fb6bc6c,40.8495563,-73.9349611,Bank
195,Washington Heights,40.85190252555305,-73.93690027985234,181st Street & St. Nicholas Avenue,50622a2fe4b0a433c33f183f,40.84931972393604,-73.93374534151803,Rest Area
196,Washington Heights,40.85190252555305,-73.93690027985234,The Children's Place,4bd33cb241b9ef3b63a2ffe5,40.84934587531209,-73.93399132525082,Kids Store
197,Washington Heights,40.85190252555305,-73.93690027985234,New York & Company,4ce80571f1c6236aba275df0,40.850204941289384,-73.93574962214448,Women's Store
198,Washington Heights,40.85190252555305,-73.93690027985234,Scoop Cafe,51e07e05498e1db52d319291,40.849988223249156,-73.93539645226812,Café
199,Washington Heights,40.85190252555305,-73.93690027985234,The UPS Store,4beafaf0183895211be90acf,40.84896959757678,-73.93252730369568,Shipping Store
200,Washington Heights,40.85190252555305,-73.93690027985234,T-Mobile,4e67acf2bd41e96a148c2a1f,40.84862,-73.934518,Mobile Phone Shop
201,Washington Heights,40.85190252555305,-73.93690027985234,Staples,4b1abaf2f964a5207ef023e3,40.8522284,-73.9343701,Paper / Office Supplies Store
202,Washington Heights,40.85190252555305,-73.93690027985234,Foot Locker,4d1a144f731976eb607509dc,40.84958,-73.934,Shoe Store
203,Washington Heights,40.85190252555305,-73.93690027985234,Mi Ranchito,4ee2bbe8775b86c4028dec5d,40.850940043830036,-73.93270136537873,Mexican Restaurant
204,Washington Heights,40.85190252555305,-73.93690027985234,Dunkin',4e38a2cfbd415d9f63d711e9,40.85358361444566,-73.93446379847944,Donut Shop
205,Washington Heights,40.85190252555305,-73.93690027985234,Bravo Supermarkets,4bf994845317a5932f87017f,40.850675,-73.9359077,Grocery Store
206,Washington Heights,40.85190252555305,-73.93690027985234,Modell's Sporting Goods,4c5714b9b1369521d952735a,40.84939695101756,-73.93440607442066,Sporting Goods Shop
207,Washington Heights,40.85190252555305,-73.93690027985234,Key Food,4b131758f964a520fd9323e3,40.85387285643355,-73.93387824458537,Supermarket
208,Washington Heights,40.85190252555305,-73.93690027985234,Heights Liquor Supermarket,4f04e4b99adf79d872be63e6,40.849495085850464,-73.93466234207153,Liquor Store
209,Washington Heights,40.85190252555305,-73.93690027985234,Lucille Roberts,4bf4778b2d6295212e206058,40.848487133551245,-73.93463619433982,Gym
210,Washington Heights,40.85190252555305,-73.93690027985234,Dan's Supermarket,4c8fd5c5352da1cdf79a0cb2,40.85182894983259,-73.93239318833459,Supermarket
211,Washington Heights,40.85190252555305,-73.93690027985234,Dunkin',4c08e1907e3fc928a3f1f082,40.848971559412725,-73.93354349109637,Donut Shop
212,Washington Heights,40.85190252555305,-73.93690027985234,Rite Aid,4c6f1f54b5a5236ab45b4c52,40.8520924,-73.9313494,Pharmacy
213,Washington Heights,40.85190252555305,-73.93690027985234,MTA - M100,4c0047b392a6c9286cf843e2,40.85506637933896,-73.93385121247948,Bus Line
214,Washington Heights,40.85190252555305,-73.93690027985234,Fitz Grocery,4b13375cf964a5209d9523e3,40.854796671938324,-73.93332709431095,Grocery Store
215,Washington Heights,40.85190252555305,-73.93690027985234,Pizza Delia,4b5f96e1f964a5204ac329e3,40.85537145052558,-73.93321228181408,Pizza Place
216,Inwood,40.86768396449915,-73.92121042203897,PJ Wine,4ad9ef84f964a520111c21e3,40.86725069863996,-73.92234862213004,Wine Shop
217,Inwood,40.86768396449915,-73.92121042203897,Inwood Farmers Market,4b6d8b8cf964a520a77b2ce3,40.8690623647046,-73.92055952849027,Farmers Market
218,Inwood,40.86768396449915,-73.92121042203897,ChocNYC,56e5e266498e0421902ee559,40.86839571994423,-73.91874220036571,Bakery
219,Inwood,40.86768396449915,-73.92121042203897,Guadalupe Bar and Grill,4b0885d1f964a520a20d23e3,40.86733441190966,-73.92086276373738,Mexican Restaurant
220,Inwood,40.86768396449915,-73.92121042203897,Bocaditos Bistro,57fa6c67498e23e3cf1861f4,40.867118,-73.923829,Bistro
221,Inwood,40.86768396449915,-73.92121042203897,Inwood Gourmet,52923c8a11d23122fff06216,40.86859393673214,-73.92136081974698,Deli / Bodega
222,Inwood,40.86768396449915,-73.92121042203897,Inwood Local,4d9f1c39daf0dcb397f7a8a3,40.868032079412906,-73.92058148137625,Wine Bar
223,Inwood,40.86768396449915,-73.92121042203897,G's Coffee Shop,4be88652947820a1e802b5db,40.86841792395646,-73.92174351734803,Diner
224,Inwood,40.86768396449915,-73.92121042203897,Furry Fiends,4bcf8a2477b29c74f0538982,40.8682535048151,-73.92155219714417,Pet Store
225,Inwood,40.86768396449915,-73.92121042203897,Isham Park,4aa84225f964a520755020e3,40.86964681199003,-73.91921038865577,Park
226,Inwood,40.86768396449915,-73.92121042203897,fantastic lounge,536d733b498ed4eaf742c67e,40.866296999999996,-73.919626,Latin American Restaurant
227,Inwood,40.86768396449915,-73.92121042203897,Garden Cafe,4c33cd1d16adc928e942c49c,40.868050488858266,-73.92047699521964,Café
228,Inwood,40.86768396449915,-73.92121042203897,Inwood Hill Park,49fe029cf964a5205d6f1fe3,40.870857526105226,-73.92012895296453,Park
229,Inwood,40.86768396449915,-73.92121042203897,Dichter Pharmacy,4c7e989ba7958cfa383c8e2b,40.867986761299925,-73.9207270084213,Pharmacy
230,Inwood,40.86768396449915,-73.92121042203897,Go Greenly,534ae4bc11d2903a086f91f5,40.86682225266927,-73.92368490409885,Frozen Yogurt Shop
231,Inwood,40.86768396449915,-73.92121042203897,Bread and Yoga,4af09262f964a5204edd21e3,40.8682294804136,-73.91802773071818,Yoga Studio
232,Inwood,40.86768396449915,-73.92121042203897,The Tubby Hook,5814dc8ed67ca5038583da78,40.86781567865924,-73.92073897853041,American Restaurant
233,Inwood,40.86768396449915,-73.92121042203897,Inwood Animal Clinic,4b76d725f964a5202f632ee3,40.866524372266475,-73.92459057127897,Veterinarian
234,Inwood,40.86768396449915,-73.92121042203897,Bizcocho De Colores,4be6f989d4f7c9b62e472720,40.866035195034456,-73.91939635323097,Bakery
235,Inwood,40.86768396449915,-73.92121042203897,Inwood Bar and Grill,56218101498e22966bef8816,40.86704379362675,-73.92257045428569,Restaurant
236,Inwood,40.86768396449915,-73.92121042203897,Anchor Heights,580142e238fa217aefab193e,40.86680693822919,-73.92050256697367,Wine Bar
237,Inwood,40.86768396449915,-73.92121042203897,La Reina Del Chicharron,4c043cd3f423a593955dd116,40.866356651741405,-73.92501189872718,Spanish Restaurant
238,Inwood,40.86768396449915,-73.92121042203897,Fidel's Gourmet Deli,4c5a7f65b1aa9c74c7560c49,40.86756287985037,-73.92438592402836,Deli / Bodega
239,Inwood,40.86768396449915,-73.92121042203897,Cafe De Broadway,53a108d6498efe2b536a8dc3,40.868299986514465,-73.91892779692039,Café
240,Inwood,40.86768396449915,-73.92121042203897,Made in Mexico,53e58cd0498e01b8fae39b41,40.86727537546098,-73.91708993197774,Mexican Restaurant
241,Inwood,40.86768396449915,-73.92121042203897,The Liffy II Bar,4b2b1dfbf964a52083b424e3,40.86904222830055,-73.91729960259804,Bar
242,Inwood,40.86768396449915,-73.92121042203897,Guacamole,5830ff3044587f7beb2271cc,40.869659000000006,-73.916736,Mexican Restaurant
243,Inwood,40.86768396449915,-73.92121042203897,Genesis Autentica Comida Ecuatoriana,4d6ab34b994f224bc1cb0beb,40.8654980859935,-73.91984190208424,Restaurant
244,Inwood,40.86768396449915,-73.92121042203897,Dolce Vida Frozen Yogurt,521e20942fc64456919eacf9,40.868482907830256,-73.91846716403961,Frozen Yogurt Shop
245,Inwood,40.86768396449915,-73.92121042203897,Kuro Kirin,5c092ec2d1a402002cd083cb,40.866223,-73.925691,Coffee Shop
246,Inwood,40.86768396449915,-73.92121042203897,Pick & Eat,55bd166d498ea08336045553,40.867614321517934,-73.92125256169876,American Restaurant
247,Inwood,40.86768396449915,-73.92121042203897,Grandpa's Brick Oven Pizza,4ab97430f964a520727f20e3,40.86821549098444,-73.9194188234502,Pizza Place
248,Inwood,40.86768396449915,-73.92121042203897,Republica,5905688f75eee432182b4fc9,40.864979,-73.923078,Restaurant
249,Inwood,40.86768396449915,-73.92121042203897,Beans & Vines,4b5b9070f964a520760729e3,40.86640788754024,-73.92482802288949,Café
250,Inwood,40.86768396449915,-73.92121042203897,Homer's Dog Run,4b11bbc1f964a520598323e3,40.87110405090399,-73.92176417332969,Dog Run
251,Inwood,40.86768396449915,-73.92121042203897,"""U"" Like",4bd5f4d229eb9c74c64594e1,40.8675317158944,-73.92156645636662,Chinese Restaurant
252,Inwood,40.86768396449915,-73.92121042203897,Lotus Express,4b9aeeedf964a52086e435e3,40.866279999999996,-73.92456700000001,Chinese Restaurant
253,Inwood,40.86768396449915,-73.92121042203897,Indian Road Playground,4c991196db10b60c9df7866d,40.87180127827139,-73.9198711812677,Playground
254,Inwood,40.86768396449915,-73.92121042203897,Cafe Tabaco y Ron,4ba56909f964a520710439e3,40.86901579447504,-73.9157760815094,Lounge
255,Inwood,40.86768396449915,-73.92121042203897,Baskin-Robbins,4f91bda47beb818efa884355,40.867661,-73.920831,Ice Cream Shop
256,Inwood,40.86768396449915,-73.92121042203897,Dyckman Farmhouse Museum,4b00526cf964a520d53c22e3,40.8675052544313,-73.92434898524932,History Museum
257,Inwood,40.86768396449915,-73.92121042203897,Empanadas Monumental,4d9b780b91863704ffd522f9,40.86524925422833,-73.91967324208582,Empanada Restaurant
258,Inwood,40.86768396449915,-73.92121042203897,John's Fried Chicken,4bf4b935e5eba593d40c2090,40.864795924590695,-73.91947030101764,Fast Food Restaurant
259,Inwood,40.86768396449915,-73.92121042203897,disFruta,4e78ffe6d4c01c5f77f14a4f,40.86461291878351,-73.91919854494306,Juice Bar
260,Inwood,40.86768396449915,-73.92121042203897,El Tina Seafood Restaurant,4bb93e047421a5933fa7c240,40.86445981289547,-73.91909750842994,Seafood Restaurant
261,Inwood,40.86768396449915,-73.92121042203897,Azteca,4d824d2dbede548186840fd1,40.864,-73.91912427302933,Mexican Restaurant
262,Inwood,40.86768396449915,-73.92121042203897,Domino's Pizza,4c1a500163750f475910b367,40.8663161,-73.9256244,Pizza Place
263,Inwood,40.86768396449915,-73.92121042203897,Skyline Lounge,507f8d3ee4b01136c17a5a18,40.863525400921475,-73.91925631697427,Lounge
264,Inwood,40.86768396449915,-73.92121042203897,Little Caesars Pizza,513e2ef8e4b0959e6a11ec2b,40.86350186913787,-73.92000265062941,Pizza Place
265,Inwood,40.86768396449915,-73.92121042203897,Floridita Resturant,4e7e1c49b6345aca1fd69166,40.86397082388327,-73.91935389423473,Caribbean Restaurant
266,Inwood,40.86768396449915,-73.92121042203897,Skyline Bar Lounge,4f32446e19836c91c7c6c4bf,40.863597358749345,-73.91940946633676,Lounge
267,Inwood,40.86768396449915,-73.92121042203897,Fine Fare,4afa4fbdf964a520af1722e3,40.865754899774615,-73.92655697967368,Supermarket
268,Inwood,40.86768396449915,-73.92121042203897,Cafe Kolmaro,4d7d0796f260a09387db44ba,40.864746000000004,-73.922005,Café
269,Inwood,40.86768396449915,-73.92121042203897,D.R. 99¢ Plaza,4df3c0e718386ecb4e31a4c6,40.86637341862161,-73.9253282546997,Convenience Store
270,Inwood,40.86768396449915,-73.92121042203897,El Mundo,4f36e71be4b00af1796fac7a,40.86412170189527,-73.9230740705098,Department Store
271,Inwood,40.86768396449915,-73.92121042203897,MTA MaBSTOA Bus Bx12 / +SBS at 207th Street / 10th Avenue,4d407236eeef88bf30be0b47,40.864195248286656,-73.91817097048349,Bus Station
272,Inwood,40.86768396449915,-73.92121042203897,Super Associated Marketplace,58103e8738fa8a34203b7c52,40.86387498350789,-73.91806710440072,Grocery Store
273,Hamilton Heights,40.823604284811935,-73.94968791883366,The Grange Bar & Eatery,51b15855498e85fb32404731,40.822553515536654,-73.9495322849762,Cocktail Bar
274,Hamilton Heights,40.823604284811935,-73.94968791883366,R.O.K.C,572e70e4498e66d841e9c25e,40.82365436586723,-73.95250628936665,Cocktail Bar
275,Hamilton Heights,40.823604284811935,-73.94968791883366,Cafe One,46e26948f964a520a24a1fe3,40.82213853417716,-73.94985305610274,Café
276,Hamilton Heights,40.823604284811935,-73.94968791883366,Fumo,56d8e01d498ef1500ae7fbfe,40.821411987945496,-73.95049884872275,Italian Restaurant
277,Hamilton Heights,40.823604284811935,-73.94968791883366,Bikram Yoga Harlem,4b4a2951f964a520e07c26e3,40.82567176513432,-73.9488869666513,Yoga Studio
278,Hamilton Heights,40.823604284811935,-73.94968791883366,Anchor Wine Bar,53ee7fe9498e649a7be0df90,40.82542420173819,-73.95120392704392,Wine Bar
279,Hamilton Heights,40.823604284811935,-73.94968791883366,Oso,57274808498e7db363dcc4bc,40.82194462624055,-73.95003838870035,Mexican Restaurant
280,Hamilton Heights,40.823604284811935,-73.94968791883366,Wat’s On Your Plate,4eb32c34e5fa17fc85cc483f,40.82563202528236,-73.94849438992527,Caribbean Restaurant
281,Hamilton Heights,40.823604284811935,-73.94968791883366,Brahman Yoga Studio,539487f4498e2f3990601b71,40.82531930121826,-73.94784807016127,Yoga Studio
282,Hamilton Heights,40.823604284811935,-73.94968791883366,Uncle Tony's Pizza,59beea8a26659b702af8a8e0,40.82144,-73.950766,Pizza Place
283,Hamilton Heights,40.823604284811935,-73.94968791883366,Hogshead Tavern,541b8c47498ebde707d51946,40.82391341488537,-73.94915226758634,Bar
284,Hamilton Heights,40.823604284811935,-73.94968791883366,Harlem Cigar Room,4f5795d0e4b024734925a904,40.82381297765499,-73.95225375113166,Smoke Shop
285,Hamilton Heights,40.823604284811935,-73.94968791883366,Frijolito's,575a15f6498e0db46deded82,40.823413,-73.952278,Mexican Restaurant
286,Hamilton Heights,40.823604284811935,-73.94968791883366,Geisha Japanese Cuisine,531a0207498e06b4656eb8c5,40.82435478003349,-73.95199336185046,Japanese Restaurant
287,Hamilton Heights,40.823604284811935,-73.94968791883366,Trufa,4da8ee246e81162ae7b15710,40.823083612129544,-73.95295214762749,Mediterranean Restaurant
288,Hamilton Heights,40.823604284811935,-73.94968791883366,Hamilton Grange National Memorial,4df67e70e4cd50071441065f,40.82136806280781,-73.94731163978575,Historic Site
289,Hamilton Heights,40.823604284811935,-73.94968791883366,Monkey Cup,55aa54bc498eac980f832bc9,40.82569352281918,-73.94723406493276,Coffee Shop
290,Hamilton Heights,40.823604284811935,-73.94968791883366,Sweet Chef Southern Style Bakery,4b0ea09ef964a520145923e3,40.824053,-73.94935500000001,Bakery
291,Hamilton Heights,40.823604284811935,-73.94968791883366,Tacos Express,4a3342cff964a520229b1fe3,40.82578402143021,-73.94874005434465,Food Truck
292,Hamilton Heights,40.823604284811935,-73.94968791883366,Jimbo's Hamburger Palace,4e4cd4e7bd413c4cc66c843d,40.82595392371681,-73.94926043908728,Burger Joint
293,Hamilton Heights,40.823604284811935,-73.94968791883366,Double Dutch Espresso,5b3cb1e828374e003971f2b1,40.821954,-73.950043,Coffee Shop
294,Hamilton Heights,40.823604284811935,-73.94968791883366,La Nueva Flor de Broadway,4a177beff964a5205e791fe3,40.82189559079043,-73.95378234193336,Latin American Restaurant
295,Hamilton Heights,40.823604284811935,-73.94968791883366,Harlem School of the Arts,4abc0f05f964a5202d8620e3,40.8220530422613,-73.94582407824112,School
296,Hamilton Heights,40.823604284811935,-73.94968791883366,Clove Indian Restaurant & Bar,54c2bd96498eaf5142e3fe92,40.82128,-73.95062,Indian Restaurant
297,Hamilton Heights,40.823604284811935,-73.94968791883366,One Stop Patty Shop,4a7a35faf964a520dee81fe3,40.825013866091766,-73.94772136347088,Caribbean Restaurant
298,Hamilton Heights,40.823604284811935,-73.94968791883366,Fantasy Hair & Spa,4bae8478f964a520dfbb3be3,40.824488,-73.952359,Cosmetics Shop
299,Hamilton Heights,40.823604284811935,-73.94968791883366,Chopped Parsley,5674592d498e85f07427e61b,40.825910965743155,-73.94745379686356,Sushi Restaurant
300,Hamilton Heights,40.823604284811935,-73.94968791883366,Riverside Park 138th St Entrance,4da7589a1e72d9bb472dcc0f,40.82306337331719,-73.9549277650913,Park
301,Hamilton Heights,40.823604284811935,-73.94968791883366,Sugar Hill Cafe,54de37ca498ee52f039506f5,40.82433024195042,-73.94553712335258,Café
302,Hamilton Heights,40.823604284811935,-73.94968791883366,Olga's Pizza,4d5028cedcce224bb140d51b,40.822379286792355,-73.95349050970361,Pizza Place
303,Hamilton Heights,40.823604284811935,-73.94968791883366,Manhattanville Coffee,537f7140498e15919e85ff84,40.8214960193694,-73.94459457496639,Coffee Shop
304,Hamilton Heights,40.823604284811935,-73.94968791883366,Hamilton's Bakery,572e30ddcd104595c82ca52e,40.82748808582801,-73.949618067467,Bakery
305,Hamilton Heights,40.823604284811935,-73.94968791883366,Solace Bar & Grill,51c11cbb498e0896ffea0ae8,40.82508584513947,-73.95134339415463,Gastropub
306,Hamilton Heights,40.823604284811935,-73.94968791883366,The Draft House,55453dce498ec77cb1ecb953,40.82439073838958,-73.95208319415376,Pub
307,Hamilton Heights,40.823604284811935,-73.94968791883366,Matto Espresso (Espresso Matto),57e584ed498eddfb8e1971a9,40.82495765397038,-73.95175921866948,Coffee Shop
308,Hamilton Heights,40.823604284811935,-73.94968791883366,Filtered Coffee,54c2bffc498e35edbe9c52c9,40.82199087872992,-73.94999139826207,Café
309,Hamilton Heights,40.823604284811935,-73.94968791883366,Campus Deli Corp.,4bd5ac62637ba59395c1f670,40.821561219749235,-73.95047357677888,Deli / Bodega
310,Hamilton Heights,40.823604284811935,-73.94968791883366,Famous Fish Market,4ae34b92f964a520f99221e3,40.823647893952675,-73.9447233080864,Seafood Restaurant
311,Hamilton Heights,40.823604284811935,-73.94968791883366,Il Caffe Latte,527d4ca311d26b252716a1ef,40.82487837593629,-73.9467900839368,Café
312,Hamilton Heights,40.823604284811935,-73.94968791883366,Nadal's Deli,4b6617f7f964a5204d132be3,40.821389463727066,-73.95446616668374,Sandwich Place
313,Hamilton Heights,40.823604284811935,-73.94968791883366,Four Stars Deli,4cbba91f0180721e72d3a061,40.824090306375545,-73.94484939092524,Deli / Bodega
314,Hamilton Heights,40.823604284811935,-73.94968791883366,Brands Wines & Liquors,4bd89b49e914a59334c053fa,40.82625953349205,-73.95004269079155,Liquor Store
315,Hamilton Heights,40.823604284811935,-73.94968791883366,MamaSushi,577875a2498e0a21a3ef1a97,40.82739211030812,-73.94983923676227,Sushi Restaurant
316,Hamilton Heights,40.823604284811935,-73.94968791883366,King's Wok,4cd76fd7dfb4a1cd7195645c,40.827566104011005,-73.94976562795797,Chinese Restaurant
317,Hamilton Heights,40.823604284811935,-73.94968791883366,Montefiore Park,4bf421cfff90c9b669e05428,40.82186075941459,-73.95353184024275,Park
318,Hamilton Heights,40.823604284811935,-73.94968791883366,P.S 153 - Adam Clayton Powell,4ccba8a2efd2ef3b1082aa8b,40.82586375133108,-73.9474427724222,School
319,Hamilton Heights,40.823604284811935,-73.94968791883366,Agave Mexican & American Grill,534aace3498e249ceb4111dc,40.824210220509144,-73.94522172573167,Mexican Restaurant
320,Hamilton Heights,40.823604284811935,-73.94968791883366,Mumbai Masala,5914ff32b23dfa207eca38de,40.826928,-73.946713,Indian Restaurant
321,Hamilton Heights,40.823604284811935,-73.94968791883366,King Gourmet Deli (Fancy Deli),4c1470faa5eb76b087dbc1b7,40.821110566598406,-73.94621549655538,Deli / Bodega
322,Hamilton Heights,40.823604284811935,-73.94968791883366,Papa John's Pizza,5812ea4538fa932fe0cc3951,40.82487430556074,-73.94763462303837,Pizza Place
323,Hamilton Heights,40.823604284811935,-73.94968791883366,Vittorio's Pizza Plus,505380aee4b07ab78c6545fe,40.82383014147579,-73.94423562359108,Pizza Place
324,Hamilton Heights,40.823604284811935,-73.94968791883366,Golden Wok,4c0b25636071a59342ece032,40.826960496307706,-73.94640130797958,Chinese Restaurant
325,Hamilton Heights,40.823604284811935,-73.94968791883366,Unity Liquors,4e0928a6d4c03ae0b9d465e7,40.824306429321986,-73.94455830799798,Liquor Store
326,Hamilton Heights,40.823604284811935,-73.94968791883366,Parlay Café,51cfac2e498eb2bc9a74c912,40.827254045384436,-73.94629541494385,Hookah Bar
327,Hamilton Heights,40.823604284811935,-73.94968791883366,Dunkin',4a35bca7f964a520549d1fe3,40.82377743516179,-73.94462868840174,Donut Shop
328,Hamilton Heights,40.823604284811935,-73.94968791883366,P&M Pizza,4df94db2a809fe7742217cf6,40.826122,-73.946579,Pizza Place
329,Hamilton Heights,40.823604284811935,-73.94968791883366,Capital One Bank,4c2a6de0b5fbb713055a49df,40.824119187550394,-73.94444824758466,Bank
330,Hamilton Heights,40.823604284811935,-73.94968791883366,Checkers,52463a94498eeb73e959e43b,40.82399309120629,-73.94505017947267,Fast Food Restaurant
331,Hamilton Heights,40.823604284811935,-73.94968791883366,SUBWAY,4b293517f964a520f79a24e3,40.8237245038912,-73.94416632887054,Sandwich Place
332,Hamilton Heights,40.823604284811935,-73.94968791883366,Suhail Deli and Grocery,4b8eb031f964a520283133e3,40.81946007527945,-73.95184080913496,Deli / Bodega
333,Manhattanville,40.8169344294978,-73.9573853935188,Oasis Juice Bar,50a64d65e4b0c753d6ab47a3,40.815016957500134,-73.95887946970998,Juice Bar
334,Manhattanville,40.8169344294978,-73.9573853935188,Jin Ramen,4f29cf06e4b022d4180801f3,40.815406172563904,-73.95854739270733,Ramen Restaurant
335,Manhattanville,40.8169344294978,-73.9573853935188,Steep Rock West,59389a503af98877bbb8dc6a,40.81666795087888,-73.95796911357189,Climbing Gym
336,Manhattanville,40.8169344294978,-73.9573853935188,Dinosaur Bar-B-Que,41b24f80f964a520661e1fe3,40.818146873796856,-73.9606735523417,BBQ Joint
337,Manhattanville,40.8169344294978,-73.9573853935188,Kissaten Jin,5320789f498e6416b2b6f814,40.81545749902605,-73.9584688976533,Café
338,Manhattanville,40.8169344294978,-73.9573853935188,Go! Go! Curry!,57a4cbac498ee795c5d0b864,40.81547267978402,-73.95823441394805,Japanese Curry Restaurant
339,Manhattanville,40.8169344294978,-73.9573853935188,West Harlem Piers Park,4ee678ffa17ceecb16341fc3,40.81879256812002,-73.96102935944113,Park
340,Manhattanville,40.8169344294978,-73.9573853935188,Hudson River Greenway Bike Path,4eb3e2550aaf1abede9a5312,40.819281875389116,-73.96073341369629,Bike Trail
341,Manhattanville,40.8169344294978,-73.9573853935188,The Expat,5d06e2eb59b5a40023f1c546,40.815355,-73.960178,Gastropub
342,Manhattanville,40.8169344294978,-73.9573853935188,Pisticci Ristorante,457f1183f964a5204b3f1fe3,40.81401515598367,-73.9602659078139,Italian Restaurant
343,Manhattanville,40.8169344294978,-73.9573853935188,Fairway Market,4a48080ff964a52075aa1fe3,40.81999621370494,-73.95973825129128,Supermarket
344,Manhattanville,40.8169344294978,-73.9573853935188,Chapati House - NYC,529d382a11d2dd5ef107e641,40.81457249971737,-73.95915381671377,Indian Restaurant
345,Manhattanville,40.8169344294978,-73.9573853935188,Plowshares Coffee,5c58826ad1a402002c0b8793,40.813705,-73.955776,Coffee Shop
346,Manhattanville,40.8169344294978,-73.9573853935188,El Puerto Seafood and Fish Market,4b92dc43f964a5204c2234e3,40.813861024837166,-73.95673661274444,Seafood Restaurant
347,Manhattanville,40.8169344294978,-73.9573853935188,The World Famous Cotton Club,3fd66200f964a5206be31ee3,40.8175873,-73.9602736,Lounge
348,Manhattanville,40.8169344294978,-73.9573853935188,El Porton,4acfe332f964a520afd620e3,40.81439947957596,-73.95932994222076,Mexican Restaurant
349,Manhattanville,40.8169344294978,-73.9573853935188,The Craftsman,58ccaf644bafb746487e6a44,40.814611835311716,-73.95914766751388,Bar
350,Manhattanville,40.8169344294978,-73.9573853935188,La Salle Dumpling Room,56c51b0dcd101a6260e3c543,40.81405982513547,-73.95970095977188,Dumpling Restaurant
351,Manhattanville,40.8169344294978,-73.9573853935188,Bettolona,4c956003f7cfa1cd2e2ebd15,40.81408384945623,-73.95957422392542,Italian Restaurant
352,Manhattanville,40.8169344294978,-73.9573853935188,Sushi Sushi,51573e61e4b06ee00f00307b,40.818595,-73.952721,Sushi Restaurant
353,Manhattanville,40.8169344294978,-73.9573853935188,Chinelos,4bd4e5076798ef3b92a6628d,40.820190000000004,-73.953769,Mexican Restaurant
354,Manhattanville,40.8169344294978,-73.9573853935188,Bakery HNY,5647be78498e1318fd278877,40.816779,-73.95340300000001,Boutique
355,Manhattanville,40.8169344294978,-73.9573853935188,Toast 125,3fd66200f964a52067e81ee3,40.81486,-73.9594,American Restaurant
356,Manhattanville,40.8169344294978,-73.9573853935188,Kuro Kuma,4fef2f45e4b0562c835d6b7c,40.81389238492917,-73.96002657140916,Coffee Shop
357,Manhattanville,40.8169344294978,-73.9573853935188,Mofongo del Valle,4b55274bf964a52006dd27e3,40.820317200012795,-73.95497729240167,Spanish Restaurant
358,Manhattanville,40.8169344294978,-73.9573853935188,Bus Stop Restaurant,49e7dfc6f964a52024651fe3,40.82021118070754,-73.95538446717724,Diner
359,Manhattanville,40.8169344294978,-73.9573853935188,Falafel on Broadway,4d5f3846922960fc13e2618b,40.814438358419125,-73.95925145225897,Falafel Restaurant
360,Manhattanville,40.8169344294978,-73.9573853935188,Fruces Harlem,5433029d498ed8c05d47a326,40.818245000000005,-73.95311600000001,Food & Drink Shop
361,Manhattanville,40.8169344294978,-73.9573853935188,Starbucks,58982463469aef72f3579b25,40.81507408334908,-73.95893045497931,Coffee Shop
362,Manhattanville,40.8169344294978,-73.9573853935188,Seafood Restaurant,4fa97e00e4b08cc7d9d73ce6,40.81393305401434,-73.95637432467015,Seafood Restaurant
363,Manhattanville,40.8169344294978,-73.9573853935188,City Gourmet Deli & Groceries,4ea6d88f6da1ce8765951655,40.81765886908907,-73.95333734132181,Deli / Bodega
364,Manhattanville,40.8169344294978,-73.9573853935188,Harlem's Floridita,50cd10ffe4b0981e0a1a1c9e,40.817998,-73.960982,Cuban Restaurant
365,Manhattanville,40.8169344294978,-73.9573853935188,Loui Loui Louisiana Seafood,59640515c9a51721665f8839,40.8142168897983,-73.95945001739813,Seafood Restaurant
366,Manhattanville,40.8169344294978,-73.9573853935188,China Place,4b21974df964a520833e24e3,40.81403821530296,-73.95954897357637,Chinese Restaurant
367,Manhattanville,40.8169344294978,-73.9573853935188,Chase Bank,55c0e920498e9135d15a66d9,40.820788,-73.955001,Bank
368,Manhattanville,40.8169344294978,-73.9573853935188,Bahama's Deli (Najeeb Super One),4c73be99d944224b74011029,40.81375159465167,-73.95980809617782,Deli / Bodega
369,Manhattanville,40.8169344294978,-73.9573853935188,Dear Mama Coffee,5b0345aa9ba3e5002c6bfeb8,40.817333,-73.959494,Coffee Shop
370,Manhattanville,40.8169344294978,-73.9573853935188,Computer Music Center - Columbia University,4f1ef87be4b03f8d8587f185,40.81655778888812,-73.95978391170502,Music School
371,Manhattanville,40.8169344294978,-73.9573853935188,MTA MaBSTOA Bus at W. 125th Street & 12th Ave (West Harlem Piers Terminal): (Bx15),4d9a738259f214560cbc29c6,40.81749014576338,-73.95994453399868,Bus Station
372,Manhattanville,40.8169344294978,-73.9573853935188,Columbia U Consignment,4c1bb811b306c92865aa62b7,40.815168,-73.959609,Thrift / Vintage Store
373,Manhattanville,40.8169344294978,-73.9573853935188,St. Claire Rose Garden,4dd5923ed1647fcf3e1d4aa2,40.81703421910123,-73.96196494473845,Park
374,Manhattanville,40.8169344294978,-73.9573853935188,Crown Fried Chicken,530aae40498ec42d9248f4b0,40.82057178763696,-73.95489746633861,Fried Chicken Joint
375,Manhattanville,40.8169344294978,-73.9573853935188,Crown Fried Chicken,4c212d9d34faef3bd45d586d,40.82040901600133,-73.95450309534094,Fried Chicken Joint
376,Manhattanville,40.8169344294978,-73.9573853935188,Mi Pais Market,4f0f7a96e4b0ad0889531a4d,40.820752708114185,-73.95484749473836,Farmers Market
377,Central Harlem,40.81597606742414,-73.94321112603905,Harlem Cycle,56ffcb8d498e9f8a61d39ff5,40.817201307497854,-73.94259246278489,Cycle Studio
378,Central Harlem,40.81597606742414,-73.94321112603905,Belle Harlem,57f9286fcd10f93045e82291,40.81689,-73.94268,American Restaurant
379,Central Harlem,40.81597606742414,-73.94321112603905,NYPL Schomburg Center for Research in Black Culture,4a55218af964a520b8b31fe3,40.81457529607425,-73.94092798233032,Library
380,Central Harlem,40.81597606742414,-73.94321112603905,Shrine World Music Venue,4aed0b8cf964a520ebcc21e3,40.81440254987884,-73.94424198638346,Music Venue
381,Central Harlem,40.81597606742414,-73.94321112603905,Yatenga,4b80389ff964a520e95d30e3,40.81430599659326,-73.94442992027335,French Restaurant
382,Central Harlem,40.81597606742414,-73.94321112603905,Harlem Hops,5b19bf2fb399f7002ccdb59f,40.81433621878843,-73.94449400480289,Beer Bar
383,Central Harlem,40.81597606742414,-73.94321112603905,Abyssinia Restaurant,4f777eb7e4b055c760bb7d39,40.816308056963194,-73.9460538576632,Ethiopian Restaurant
384,Central Harlem,40.81597606742414,-73.94321112603905,Ponty Bistro Harlem,53e01975498e78c0915599bf,40.81788580529937,-73.9415220349791,African Restaurant
385,Central Harlem,40.81597606742414,-73.94321112603905,Bill's Place,549e1a59498e58bd4f653d19,40.813366394224474,-73.94370055778845,Jazz Club
386,Central Harlem,40.81597606742414,-73.94321112603905,Harlem YMCA,4a6b5879f964a52082ce1fe3,40.81479,-73.94291,Gym / Fitness Center
387,Central Harlem,40.81597606742414,-73.94321112603905,Harlem Nights,55bfb087498eeabf50d4692e,40.81719783885,-73.94214639619078,Bar
388,Central Harlem,40.81597606742414,-73.94321112603905,ACP Coffee,570ab94f498ed6d53d54f955,40.81500815234818,-73.9443029482927,Café
389,Central Harlem,40.81597606742414,-73.94321112603905,Acts III bagels,54bf1905498ea4735eac912b,40.81588683126391,-73.94505096884126,Bagel Shop
390,Central Harlem,40.81597606742414,-73.94321112603905,Ruby’s Vintage,5bba952a8194fc002cc991cf,40.816736,-73.942655,Cocktail Bar
391,Central Harlem,40.81597606742414,-73.94321112603905,Rejuvenate,507d971fe4b04505d2b047ca,40.81387169664626,-73.94414206437838,Juice Bar
392,Central Harlem,40.81597606742414,-73.94321112603905,Make My Cake,4b780feaf964a5200fb42ee3,40.81733984073678,-73.94492729323323,Dessert Shop
393,Central Harlem,40.81597606742414,-73.94321112603905,Renaissance Harlem,59cc6158c0af57432b9fd02b,40.81341373965783,-73.94498356642218,French Restaurant
394,Central Harlem,40.81597606742414,-73.94321112603905,FIGS BARBERSHOP,4d56a95ec6edf04de043d3a2,40.81637570617639,-73.94664529499558,Spa
395,Central Harlem,40.81597606742414,-73.94321112603905,Crispy Bamboo Village,4bf348fce5eba593c8711e90,40.81627823973171,-73.94693839905996,Chinese Restaurant
396,Central Harlem,40.81597606742414,-73.94321112603905,Pizza Stop,4e52a4b988775123c0ebc126,40.815080098326085,-73.94004044021452,Pizza Place
397,Central Harlem,40.81597606742414,-73.94321112603905,The Edge Harlem,541c683e498ef421d4e16eb3,40.819691575695686,-73.94607292237941,American Restaurant
398,Central Harlem,40.81597606742414,-73.94321112603905,Vault,4b59cb2ef964a520679828e3,40.81554308153618,-73.94730305055354,Boutique
399,Central Harlem,40.81597606742414,-73.94321112603905,Keur Sokhna,4c2fdced452620a120551e0f,40.81355599557865,-73.94500077822643,African Restaurant
400,Central Harlem,40.81597606742414,-73.94321112603905,Charles' Pan Fried Chicken,588503429e35d3344d7307b9,40.814537201540006,-73.9480964550787,Fried Chicken Joint
401,Central Harlem,40.81597606742414,-73.94321112603905,88 Chinese Restaurant,4bd1f6909854d13a38a2fa4d,40.81318684305849,-73.94146699347901,Chinese Restaurant
402,Central Harlem,40.81597606742414,-73.94321112603905,Brazilian Babes,5430263f498e14ac519b0aeb,40.814872778355664,-73.9440617622794,Cosmetics Shop
403,Central Harlem,40.81597606742414,-73.94321112603905,St. Nicholas Park,4c3babba16cb2d7f794503a9,40.817885338310575,-73.94843816757201,Park
404,Central Harlem,40.81597606742414,-73.94321112603905,La masion d'Art,518fd2d0498e21c60bd629b8,40.814253457025245,-73.94680695927478,Art Gallery
405,Central Harlem,40.81597606742414,-73.94321112603905,Jerkyz,5645609b498e47952f22cd7d,40.81817689825104,-73.94148093717857,Caribbean Restaurant
406,Central Harlem,40.81597606742414,-73.94321112603905,Revolution Books,564fc13c498e1568dda9005d,40.81208041342418,-73.94237549083205,Bookstore
407,Central Harlem,40.81597606742414,-73.94321112603905,Lorraine's Place,4cf1f5ce899c6ea810fff3c1,40.813479300047945,-73.94501010617324,Bar
408,Central Harlem,40.81597606742414,-73.94321112603905,Presto Fresh Cafe,5568cad0498e8be4b9550355,40.81630797225211,-73.93927710432288,Cafeteria
409,Central Harlem,40.81597606742414,-73.94321112603905,LightHouse Fish Market & Restaurant,53b86577498e69be2ef130c7,40.8142671706303,-73.94815310035384,Seafood Restaurant
410,Central Harlem,40.81597606742414,-73.94321112603905,House Of Seafood,4e4cd087bd413c4cc66c6000,40.81192091273784,-73.9425440011307,Seafood Restaurant
411,Central Harlem,40.81597606742414,-73.94321112603905,Big L Memorial Mural,4d5b4491e440ba7aa617a40d,40.81849815811956,-73.939471125448,Public Art
412,Central Harlem,40.81597606742414,-73.94321112603905,Africa Kine Restaurant,4a9ea132f964a520ad3a20e3,40.8137280306601,-73.94442558288574,African Restaurant
413,Central Harlem,40.81597606742414,-73.94321112603905,Londel's Restaurant,4ad22304f964a5209bdf20e3,40.81939003271195,-73.94443958054147,Southern / Soul Food Restaurant
414,Central Harlem,40.81597606742414,-73.94321112603905,The Harlem Scrabble Room,5065fb4029a6ee0857336d2c,40.819252699303384,-73.94631915626981,Event Space
415,Central Harlem,40.81597606742414,-73.94321112603905,Lt Joseph P Kennedy Jr Community Center Gym,4d042ad28620224ba18ca740,40.81260785559189,-73.93969908127347,Gym
416,Central Harlem,40.81597606742414,-73.94321112603905,Polanco Bbq Restaurant,4e4e4d33bd4101d0d7a734d4,40.8192800974072,-73.94082112791878,BBQ Joint
417,Central Harlem,40.81597606742414,-73.94321112603905,Foodtown of Frederick Douglass Blvd,570f96f6cd106ccb5882dc7c,40.81467550708393,-73.94815630569936,Market
418,Central Harlem,40.81597606742414,-73.94321112603905,Big Russ Barber Shop,4bf7e67a5ec320a115ac87d3,40.81485767292566,-73.94779866478925,Salon / Barbershop
419,East Harlem,40.79224946663033,-73.94418223148524,East Harlem Bottling Co.,57aba4b9498e20d64404646c,40.793024298345586,-73.94572705216947,Beer Bar
420,East Harlem,40.79224946663033,-73.94418223148524,Cascolate Latin Bistro,5221402b11d2f5e7ec7c37e8,40.79278747455707,-73.94082990399929,Mexican Restaurant
421,East Harlem,40.79224946663033,-73.94418223148524,Malii,55a85a66498e68da40bc7212,40.789524977200365,-73.94323226322045,Thai Restaurant
422,East Harlem,40.79224946663033,-73.94418223148524,Pioneers' Gate,4c72f2421b11199caf9a5c13,40.792023410946506,-73.9455877465435,Park
423,East Harlem,40.79224946663033,-73.94418223148524,Lupita's Restaurant,53892262498ef00115e1cb9d,40.79015889022545,-73.94292951878377,Mexican Restaurant
424,East Harlem,40.79224946663033,-73.94418223148524,Ricardo Steak House,4ad90e1df964a520981721e3,40.793434739595234,-73.94047119574417,Steakhouse
425,East Harlem,40.79224946663033,-73.94418223148524,Mountain Bird,553c1b00498e7eb81316bf1b,40.793851,-73.939942,French Restaurant
426,East Harlem,40.79224946663033,-73.94418223148524,El Chevere Cuchifritos,4eebcde88b81bbbf5b3b9e19,40.79399379623322,-73.9429713835459,Latin American Restaurant
427,East Harlem,40.79224946663033,-73.94418223148524,Smashiess,4b80fc8df964a520489430e3,40.790268078798725,-73.94730036307469,Sandwich Place
428,East Harlem,40.79224946663033,-73.94418223148524,Bangklyn East Harlem,5a68fb506336be407ef635ab,40.790287,-73.943054,Thai Restaurant
429,East Harlem,40.79224946663033,-73.94418223148524,Savoy Bakery,4a6eefe5f964a52019d51fe3,40.79445562343889,-73.94352574749051,Bakery
430,East Harlem,40.79224946663033,-73.94418223148524,Duane Reade,4b69d51bf964a52009b72be3,40.7913539,-73.9446192,Pharmacy
431,East Harlem,40.79224946663033,-73.94418223148524,Women's World of Boxing,4e4e91ca18505e3814e804c6,40.793549,-73.940495,Gym
432,East Harlem,40.79224946663033,-73.94418223148524,Lorenz Latin Dance Studio,510c9cd5e4b03bf82c1dfef1,40.79365952280243,-73.94024419226427,Dance Studio
433,East Harlem,40.79224946663033,-73.94418223148524,El Aguila,4ed825e98231efe38cad7306,40.790464021675085,-73.94760191291729,Mexican Restaurant
434,East Harlem,40.79224946663033,-73.94418223148524,Amor Cubano,4a6908c3f964a5207ecb1fe3,40.794829490147166,-73.94253551564837,Cuban Restaurant
435,East Harlem,40.79224946663033,-73.94418223148524,Cafe Ollin,4b4b5e8cf964a520039926e3,40.79106649607545,-73.93959460113427,Mexican Restaurant
436,East Harlem,40.79224946663033,-73.94418223148524,El Caribeno,4bc65c9cdb8fa593be479c37,40.79155043218609,-73.94672307784491,Spanish Restaurant
437,East Harlem,40.79224946663033,-73.94418223148524,Frenchy Cafe NYC,5a772c1625ecca5ea8cd01cd,40.78980349960703,-73.94816422034151,Café
438,East Harlem,40.79224946663033,-73.94418223148524,Graffiti Hall Of Fame,4bfd8f294cf820a108a5ecf4,40.79201846446024,-73.94559553652047,Street Art
439,East Harlem,40.79224946663033,-73.94418223148524,106 & Park Avenue,4ce6d1330f196dcb0a0f3aae,40.79301881008675,-73.94794464111328,Historic Site
440,East Harlem,40.79224946663033,-73.94418223148524,Sidewalk Tacos,593b0f08a4b51b4815238300,40.792928,-73.940424,Taco Place
441,East Harlem,40.79224946663033,-73.94418223148524,Dunkin',4e4695a9b0fb93df270ae11b,40.79289946208177,-73.94403730751554,Donut Shop
442,East Harlem,40.79224946663033,-73.94418223148524,Brothers Bakery & Cafe,5534fe8f498e91f785e191b2,40.79378547424904,-73.9401543568426,Bakery
443,East Harlem,40.79224946663033,-73.94418223148524,Lechonera El Barrio,4b1eb2b7f964a520041e24e3,40.78986835379094,-73.94652720757209,Latin American Restaurant
444,East Harlem,40.79224946663033,-73.94418223148524,The Lexington Social,4c2d489a3a4d0f47e8b3e386,40.79059415096985,-73.94751617338258,Cocktail Bar
445,East Harlem,40.79224946663033,-73.94418223148524,La Nostra Pizzeria,4bffe7dd92a6c928d44443e2,40.79312695201179,-73.9404248930157,Pizza Place
446,East Harlem,40.79224946663033,-73.94418223148524,Absolute Thai Restaurant,5303fc3c11d250deaaf46b56,40.78920165381754,-73.94844039571389,Thai Restaurant
447,East Harlem,40.79224946663033,-73.94418223148524,Blue Line Deli & Grocery (Hajji's),4cf9e9be084f5481c2387809,40.7921117120659,-73.93824256642792,Deli / Bodega
448,East Harlem,40.79224946663033,-73.94418223148524,Ranch Market,4e4418ef1838e44e89884745,40.7943854763887,-73.9490098419699,Restaurant
449,East Harlem,40.79224946663033,-73.94418223148524,El Tepeyac Grocery,4bbe873382a2ef3bc5952bd2,40.78993217695178,-73.94803047180176,Grocery Store
450,East Harlem,40.79224946663033,-73.94418223148524,The Poets Den Theater,4ce5cb1d948f224b6b31e05d,40.791529353474424,-73.9407678428102,Performing Arts Venue
451,East Harlem,40.79224946663033,-73.94418223148524,La Tropezienne Bakery,4ad37305f964a52078e420e3,40.79197800258682,-73.93828014505316,Bakery
452,East Harlem,40.79224946663033,-73.94418223148524,Pretty Nail No 1,4b36229bf964a520653025e3,40.78807742617483,-73.94424004280967,Spa
453,East Harlem,40.79224946663033,-73.94418223148524,Emmerson Gourmet,4b5b5848f964a5204df628e3,40.78838866659522,-73.94714428154488,Deli / Bodega
454,East Harlem,40.79224946663033,-73.94418223148524,Lupita's Restaurant,5113f1e2e4b095b57d329466,40.78914035356812,-73.94834972264611,Mexican Restaurant
455,East Harlem,40.79224946663033,-73.94418223148524,Shell,4ca8c36e44a8224bbcd31a40,40.78934676,-73.94803039,Gas Station
456,East Harlem,40.79224946663033,-73.94418223148524,Dreamer's Pizza,4bbfbe69abf49521a539be93,40.789188016780834,-73.94635064906875,Pizza Place
457,East Harlem,40.79224946663033,-73.94418223148524,Almost 99cent & Plus,4edd5f988b8173160fe2d8f4,40.788321480419135,-73.94148434814662,Convenience Store
458,East Harlem,40.79224946663033,-73.94418223148524,The Ranch,4c71e794376da0932a42a5c6,40.788384,-73.947067,Fast Food Restaurant
459,East Harlem,40.79224946663033,-73.94418223148524,Wines & Liquors,4c432eafff711b8db48a1405,40.78840150968184,-73.94110548259751,Liquor Store
460,Upper East Side,40.775638573301805,-73.96050763135,Sant Ambroeus,4a22d7f9f964a520977d1fe3,40.77532770471081,-73.96281878358091,Italian Restaurant
461,Upper East Side,40.775638573301805,-73.96050763135,Lady M Cake Boutique,4ae37940f964a520869521e3,40.7756192,-73.9621861,Bakery
462,Upper East Side,40.775638573301805,-73.96050763135,Aesop,51ec2257498e2f5b0a5a17a2,40.777435811091586,-73.961322089071,Cosmetics Shop
463,Upper East Side,40.775638573301805,-73.96050763135,Dos Toros Taqueria,4e6e8d177d8b6c5625c019bc,40.77395007083009,-73.95966838277417,Burrito Place
464,Upper East Side,40.775638573301805,-73.96050763135,Bemelmans Bar,3fd66200f964a520cdea1ee3,40.77460663060093,-73.96330814709152,Hotel Bar
465,Upper East Side,40.775638573301805,-73.96050763135,Exhale,4abe1b6ff964a520ab8b20e3,40.77472908300697,-73.96329365759321,Spa
466,Upper East Side,40.775638573301805,-73.96050763135,The Mark Hotel,4b37853af964a520c54125e3,40.77527418705178,-73.96338256441804,Hotel
467,Upper East Side,40.775638573301805,-73.96050763135,Albertine,54256928498e56188b8aaded,40.77667833078863,-73.96376967430115,Bookstore
468,Upper East Side,40.775638573301805,-73.96050763135,The Carlyle,4ac8d0d3f964a520b3bc20e3,40.774413091904705,-73.96330126859895,Hotel
469,Upper East Side,40.775638573301805,-73.96050763135,Warby Parker,53232961498eccced8d4c75d,40.77662462,-73.95740062,Optical Shop
470,Upper East Side,40.775638573301805,-73.96050763135,Handcraft Coffee,58232a8d8b624d27650026e8,40.77353518266607,-73.95967048748328,Coffee Shop
471,Upper East Side,40.775638573301805,-73.96050763135,The Mark Restaurant by Jean-Georges,4b7f36b5f964a520a31f30e3,40.77521873043948,-73.96338138800205,American Restaurant
472,Upper East Side,40.775638573301805,-73.96050763135,Café Carlyle,3fd66200f964a520ede71ee3,40.77446619133348,-73.96336879007355,Jazz Club
473,Upper East Side,40.775638573301805,-73.96050763135,Eli's Night Shift,564bc0e5498ebbcbab5b0d7b,40.77434551192844,-73.95751164710708,Bar
474,Upper East Side,40.775638573301805,-73.96050763135,Pastrami Queen,4ae4a68ef964a520b99c21e3,40.77439261715825,-73.95935127449525,Sandwich Place
475,Upper East Side,40.775638573301805,-73.96050763135,Café Boulud,3fd66200f964a5207fe91ee3,40.77446013544719,-73.96389280110587,French Restaurant
476,Upper East Side,40.775638573301805,-73.96050763135,Chaise Fitness,54087255498e606849df7f7c,40.77674515212741,-73.95759126481023,Gym / Fitness Center
477,Upper East Side,40.775638573301805,-73.96050763135,Flex Mussels,4a593996f964a5200ab91fe3,40.776336676544645,-73.95643047622309,Seafood Restaurant
478,Upper East Side,40.775638573301805,-73.96050763135,Central Park - Miner's Gate - E 79th St,4bc1be8d920eb71313171b2c,40.7770931433309,-73.96377296481572,Park
479,Upper East Side,40.775638573301805,-73.96050763135,Christian Louboutin,4b705cd2f964a52052152de3,40.77397767433252,-73.96379929997335,Shoe Store
480,Upper East Side,40.775638573301805,-73.96050763135,Central Park - Group of Bears,4bc25161f8219c74bbb4b410,40.77741648976363,-73.96392799029844,Sculpture Garden
481,Upper East Side,40.775638573301805,-73.96050763135,Butterfield Market,4ace59d0f964a5200ad020e3,40.774065863225466,-73.95959516915148,Grocery Store
482,Upper East Side,40.775638573301805,-73.96050763135,Greek and Roman Art,4f97105ce4b00557e67ab982,40.778173856858466,-73.96352893278149,Exhibit
483,Upper East Side,40.775638573301805,-73.96050763135,Antonucci,4b3bedfaf964a5209e7e25e3,40.77571064654,-73.95660701282836,Italian Restaurant
484,Upper East Side,40.775638573301805,-73.96050763135,Toloache 82,4e972a527bebee95ad73a290,40.77656629708003,-73.95664177765191,Mexican Restaurant
485,Upper East Side,40.775638573301805,-73.96050763135,Sushi Noz,5a8c6e6fb6b04b2d4e648ccb,40.773786,-73.958118,Sushi Restaurant
486,Upper East Side,40.775638573301805,-73.96050763135,Emmy Squared,5dcc4f94d4b62c0009df23dd,40.775582,-73.956576,Pizza Place
487,Upper East Side,40.775638573301805,-73.96050763135,Eli's Table,548485f6498eee3c9eaa5dbf,40.77504334998626,-73.95680803408706,American Restaurant
488,Upper East Side,40.775638573301805,-73.96050763135,Canine Styles Uptown,4bf2b9c382002d7f80dfd0bb,40.776436007847764,-73.95784535789318,Pet Store
489,Upper East Side,40.775638573301805,-73.96050763135,Dulce Vida Latin Bistro,4d3b411f34ee37044203819b,40.777168420199644,-73.95729271279279,Latin American Restaurant
490,Upper East Side,40.775638573301805,-73.96050763135,CHOPT,52a8fd5f498e34824e297738,40.77379708458151,-73.9578249965559,Salad Place
491,Upper East Side,40.775638573301805,-73.96050763135,Harbs,56465934498eb7f010d1ad98,40.773618299799296,-73.95796505700109,Dessert Shop
492,Upper East Side,40.775638573301805,-73.96050763135,The Surrey,4ae0e432f964a5206e8321e3,40.7744149,-73.9638893,Hotel
493,Upper East Side,40.775638573301805,-73.96050763135,The Met Breuer,560697f6498e0ef447c5f6fd,40.7735510352329,-73.96422626639125,Art Museum
494,Upper East Side,40.775638573301805,-73.96050763135,James Michael Levin Playground,4a37fd9af964a520a19e1fe3,40.774914404410026,-73.96510729899892,Playground
495,Upper East Side,40.775638573301805,-73.96050763135,CityRow,56732721498e5862463670b9,40.77484736228385,-73.95674766396186,Gym / Fitness Center
496,Upper East Side,40.775638573301805,-73.96050763135,The Simone,533b5715498ee1e90e846e1d,40.776918,-73.956911,French Restaurant
497,Upper East Side,40.775638573301805,-73.96050763135,Metropolitan Museum Steps,4c30f3c166e40f477d4fc48b,40.77906283716806,-73.96251440048218,Plaza
498,Upper East Side,40.775638573301805,-73.96050763135,Flora Bar,57fff845d67c8ac5e8f772cb,40.773596077409636,-73.96419416844952,Mediterranean Restaurant
499,Upper East Side,40.775638573301805,-73.96050763135,Barbour,4b1d6385f964a520d40f24e3,40.77679459180526,-73.96179072153683,Boutique
500,Upper East Side,40.775638573301805,-73.96050763135,Y7 – Upper East Side,57e9a32c498e8b22de297f1b,40.77649461350271,-73.95559351310052,Yoga Studio
501,Upper East Side,40.775638573301805,-73.96050763135,Beyoglu,49eb9b35f964a52001671fe3,40.775517995168634,-73.95635789585141,Turkish Restaurant
502,Upper East Side,40.775638573301805,-73.96050763135,diptyque,4b9fe562f964a520774837e3,40.77419,-73.9635,Cosmetics Shop
503,Upper East Side,40.775638573301805,-73.96050763135,By the Way Bakery,563d373fcd103c7d686a2217,40.777947796529745,-73.9566690328144,Bakery
504,Upper East Side,40.775638573301805,-73.96050763135,Orsay,4408540af964a52055301fe3,40.77242347784402,-73.96069870245756,French Restaurant
505,Upper East Side,40.775638573301805,-73.96050763135,Bottle & Soul,4bf5ab5c4d5f20a1b9e297fe,40.77651844515788,-73.95777813061173,Wine Shop
506,Upper East Side,40.775638573301805,-73.96050763135,The Waterfall Mansion,5050e8ffe4b0fd41b5d95eae,40.77499728750287,-73.95690215236247,Art Gallery
507,Upper East Side,40.775638573301805,-73.96050763135,Play It Loud: Instruments Of Rock And Roll,5cae09c6bf7dde002cd47af0,40.778483,-73.963419,Art Museum
508,Upper East Side,40.775638573301805,-73.96050763135,"Arts of Africa, Oceania and the Americas",4c85571351ada1cdbdee3610,40.77829127549353,-73.96425714206909,Exhibit
509,Upper East Side,40.775638573301805,-73.96050763135,JOE & THE JUICE,5af539f0d8096e002cf89962,40.775665276454674,-73.9584729786187,Juice Bar
510,Upper East Side,40.775638573301805,-73.96050763135,The Great Hall,4c855ad3d8086dcba4489152,40.77919282483418,-73.96302938461304,Exhibit
511,Upper East Side,40.775638573301805,-73.96050763135,SoulCycle East 83rd,4be1910358102d7faed64156,40.77699051498346,-73.95532907885685,Cycle Studio
512,Upper East Side,40.775638573301805,-73.96050763135,Ukrainian Institute of America,4bd5bcf829eb9c74dfcd93e1,40.776937143550136,-73.96350669862444,Art Gallery
513,Upper East Side,40.775638573301805,-73.96050763135,Joe the Art of Coffee,4ef4c5b099111bd0a9b8e9c2,40.7720441944042,-73.96080496387015,Coffee Shop
514,Upper East Side,40.775638573301805,-73.96050763135,Bode NYC - Upper East Side,4ae37a3cf964a520989521e3,40.776989620169964,-73.95568443736269,Yoga Studio
515,Upper East Side,40.775638573301805,-73.96050763135,Pig Heaven,5465906e498e0cb221c063e1,40.7754503,-73.95683919999999,Chinese Restaurant
516,Upper East Side,40.775638573301805,-73.96050763135,Burger One,4bed875a91380f478508a018,40.775229816916685,-73.9586854420627,Burger Joint
517,Upper East Side,40.775638573301805,-73.96050763135,305 Fitness,5bccb80067f62b002c693885,40.775943269169765,-73.95604125683425,Gym / Fitness Center
518,Upper East Side,40.775638573301805,-73.96050763135,Amber,4aa29d9cf964a520f94120e3,40.77498498304562,-73.95692819050043,Sushi Restaurant
519,Upper East Side,40.775638573301805,-73.96050763135,Paper Source,53de66c2498e35941ac3795b,40.77150016132978,-73.9594352363973,Paper / Office Supplies Store
520,Upper East Side,40.775638573301805,-73.96050763135,Tiramisu,49fcd632f964a520e36e1fe3,40.77494597871838,-73.95693214362441,Italian Restaurant
521,Upper East Side,40.775638573301805,-73.96050763135,Heyday,58c4022a109dfe121749c628,40.776403,-73.955362,Spa
522,Upper East Side,40.775638573301805,-73.96050763135,Levain Bakery,5d2ccef540f3b0002ffe517d,40.777354,-73.955284,Bakery
523,Upper East Side,40.775638573301805,-73.96050763135,Apple Upper East Side,557b3e88498e1b84b45cc7c5,40.773357346675624,-73.9645367860794,Electronics Store
524,Upper East Side,40.775638573301805,-73.96050763135,McCabes Wine & Spirits,4b490700f964a520ab6226e3,40.772902454046175,-73.95833836637415,Wine Shop
525,Upper East Side,40.775638573301805,-73.96050763135,Lexington Candy Shop Luncheonette,4a63938af964a5205ac51fe3,40.777503,-73.957213,Diner
526,Upper East Side,40.775638573301805,-73.96050763135,Madewell,52f68f0a498e04572a606719,40.7799359,-73.9596592,Women's Store
527,Upper East Side,40.775638573301805,-73.96050763135,Caffe Buon Gusto - Manhattan,4a6133a6f964a52015c21fe3,40.77249848070456,-73.9569944284568,Italian Restaurant
528,Upper East Side,40.775638573301805,-73.96050763135,Juice Generation,4eefa64577169cacb3ce6752,40.77742324433802,-73.9552415907383,Juice Bar
529,Upper East Side,40.775638573301805,-73.96050763135,Maison Kayser,4fc95a1ee4b0f9aeca457705,40.77131932572194,-73.95959246401709,Bakery
530,Upper East Side,40.775638573301805,-73.96050763135,Flora Coffee,57fd1ea1498ed237e1aa452c,40.773415608649984,-73.96396335420376,Coffee Shop
531,Upper East Side,40.775638573301805,-73.96050763135,Eli's Market,49df9094f964a520e1601fe3,40.7750780079548,-73.95673852514497,Gourmet Shop
532,Upper East Side,40.775638573301805,-73.96050763135,Candle Cafe,3fd66200f964a52088e91ee3,40.771407,-73.959138,Vegetarian / Vegan Restaurant
533,Upper East Side,40.775638573301805,-73.96050763135,Exceed Physical Culture,502bd17ce4b00955904fe63c,40.77719197102275,-73.95518048990078,Gym / Fitness Center
534,Upper East Side,40.775638573301805,-73.96050763135,Starbucks Reserve,57eeb8e3498e1dd086ebf03f,40.77984961470853,-73.95958442027471,Coffee Shop
535,Upper East Side,40.775638573301805,-73.96050763135,Carroll And Milton Petrie European Sculpture Court,4e21ef48aeb7026395358a2b,40.77911941086217,-73.96411047130849,Exhibit
536,Upper East Side,40.775638573301805,-73.96050763135,Sur La Table,4c9d0ddf54c8a1cd6704804b,40.77207734231519,-73.95904245557166,Kitchen Supply Store
537,Upper East Side,40.775638573301805,-73.96050763135,Carolina Herrera,4d5d2a2c524fa35d8f5f5135,40.77380692686294,-73.96403548125686,Boutique
538,Upper East Side,40.775638573301805,-73.96050763135,Pressed Juicery,56c8d5ef498e815bf04b5f58,40.77807136426375,-73.9568889613596,Juice Bar
539,Upper East Side,40.775638573301805,-73.96050763135,787 Coffee,5dbf3656eb5a0d000859a595,40.774461,-73.955438,Coffee Shop
540,Upper East Side,40.775638573301805,-73.96050763135,Juice Press,54412dcb498e48202bed21eb,40.77714955178238,-73.95528852939606,Juice Bar
541,Upper East Side,40.775638573301805,-73.96050763135,Citarella Gourmet Market - Upper East Side,4c2fa71309a99c7413e30a2a,40.7717467,-73.95872800000001,Grocery Store
542,Upper East Side,40.775638573301805,-73.96050763135,Nespresso,59b6f86861f0700444627663,40.77317939578769,-73.96440565021449,Coffee Shop
543,Upper East Side,40.775638573301805,-73.96050763135,lululemon athletica,4e847d097ee6dd97bf9c8883,40.780102731374605,-73.95976915955544,Clothing Store
544,Upper East Side,40.775638573301805,-73.96050763135,Michael Werner,4b644e3cf964a5209ca92ae3,40.775247,-73.964262,Art Gallery
545,Upper East Side,40.775638573301805,-73.96050763135,Sojourn,4be1fe8b660ec9282567c83b,40.773367,-73.955511,Tapas Restaurant
546,Upper East Side,40.775638573301805,-73.96050763135,Famous Famiglia Pizza,586967944988da05edda9ca3,40.778294,-73.9566,Pizza Place
547,Upper East Side,40.775638573301805,-73.96050763135,Caffe Grazie,4b23ee1ef964a520255d24e3,40.779538,-73.959986,Italian Restaurant
548,Upper East Side,40.775638573301805,-73.96050763135,CorePower Yoga,5d60ee764d67cb00088e3df0,40.7784805,-73.9561277,Yoga Studio
549,Upper East Side,40.775638573301805,-73.96050763135,Irving Farm Coffee Roasters,5705c740498e74a8ee68d398,40.77543837923943,-73.95661894047544,Coffee Shop
550,Upper East Side,40.775638573301805,-73.96050763135,American Irish Historical Society,4ba144fdf964a520c2a737e3,40.77768662289042,-73.96307880188434,History Museum
551,Upper East Side,40.775638573301805,-73.96050763135,Vintage Grape,4aa306eff964a5200b4320e3,40.77729834470589,-73.95511392274207,Wine Shop
552,Upper East Side,40.775638573301805,-73.96050763135,Mezzaluna Restaurants,4a78f65ef964a520b7e61fe3,40.771352488755774,-73.95968198776245,Italian Restaurant
553,Upper East Side,40.775638573301805,-73.96050763135,Thai @ Lex,4fdfd421e4b0709249b13d50,40.77811,-73.95672,Thai Restaurant
554,Upper East Side,40.775638573301805,-73.96050763135,Just Salad,519e4e63abd8b0bd7a2dea24,40.777036557771275,-73.95528981694807,Salad Place
555,Upper East Side,40.775638573301805,-73.96050763135,Glade Arch,4e2e881518a8ea95b09c1b77,40.77634928656113,-73.96565794944763,Bridge
556,Upper East Side,40.775638573301805,-73.96050763135,Asian Art,50620959e4b0100721c7b211,40.77970148784776,-73.96248157185283,Exhibit
557,Upper East Side,40.775638573301805,-73.96050763135,BLT Prime,5c9f88a2fd16bb002c172bce,40.77161,-73.96169,Steakhouse
558,Yorkville,40.775929849884875,-73.94711784471826,Bagel Bob's on York,4a99505af964a520c92d20e3,40.776459,-73.9469717,Bagel Shop
559,Yorkville,40.775929849884875,-73.94711784471826,Peng's Noodle Folk,579fb23f498e7f9f1b7bd04c,40.77725764842952,-73.94911007213871,Asian Restaurant
560,Yorkville,40.775929849884875,-73.94711784471826,Yorkshire Wines & Spirits,4ad68042f964a520810721e3,40.776319048488354,-73.94978617862375,Wine Shop
561,Yorkville,40.775929849884875,-73.94711784471826,Shorty's,53dad557498ec8c9278ec199,40.77795688387838,-73.94856137770707,Sandwich Place
562,Yorkville,40.775929849884875,-73.94711784471826,EVF Performance,4fb7ff5dc2ee15fc8eefd091,40.77562494620712,-73.94740183923969,Gym
563,Yorkville,40.775929849884875,-73.94711784471826,Carl Schurz Park,49ee4a7df964a52047681fe3,40.77511823969361,-73.94376326618595,Park
564,Yorkville,40.775929849884875,-73.94711784471826,Park East Wines & Spirits,4b04a129f964a520cc5522e3,40.7767153521551,-73.94666330721658,Liquor Store
565,Yorkville,40.775929849884875,-73.94711784471826,Le Grand Triage: Wine & Whiskey,5675f42b498e1b7d98a97b22,40.777198346497926,-73.94916678009996,Wine Shop
566,Yorkville,40.775929849884875,-73.94711784471826,Stella & Fly,5b0edcd498fbfc002cfcad0e,40.77846380035534,-73.94828205986073,Coffee Shop
567,Yorkville,40.775929849884875,-73.94711784471826,Mansion Restaurant,4b0dd1d9f964a520b65023e3,40.7759621,-73.9467767,Diner
568,Yorkville,40.775929849884875,-73.94711784471826,Ottomanelli Brothers,4caccbe197c8a1cd21fea3a5,40.7735553,-73.9492013,Deli / Bodega
569,Yorkville,40.775929849884875,-73.94711784471826,York Farm Corp,49d3d79ff964a5201b5c1fe3,40.77706752523725,-73.9464373968435,Deli / Bodega
570,Yorkville,40.775929849884875,-73.94711784471826,Carl Schurz Dog Run,4ba53855f964a520a0ed38e3,40.77393335224556,-73.94388158347658,Dog Run
571,Yorkville,40.775929849884875,-73.94711784471826,City Swiggers,4e95c2f5108168120ad2f07e,40.777514591474876,-73.95082007552988,Beer Store
572,Yorkville,40.775929849884875,-73.94711784471826,Poke Restaurant,4a0d5a23f964a52077751fe3,40.77650835249341,-73.95054836908128,Sushi Restaurant
573,Yorkville,40.775929849884875,-73.94711784471826,Gracie Mansion,459813d3f964a5207c401fe3,40.77612992283735,-73.94310057163237,Monument / Landmark
574,Yorkville,40.775929849884875,-73.94711784471826,We Deliver Videos,4b4e3641f964a52075e526e3,40.77871742792299,-73.9480586398385,Video Store
575,Yorkville,40.775929849884875,-73.94711784471826,Nica Trattoria,4b623700f964a520a83c2ae3,40.775688458031425,-73.95057000240742,Italian Restaurant
576,Yorkville,40.775929849884875,-73.94711784471826,Alex's MVP Comics & Cards,4be6c85fcf200f47acd8143c,40.77443367716464,-73.94828572573921,Hobby Shop
577,Yorkville,40.775929849884875,-73.94711784471826,Felice 83,4e4078922271a89dd083d07e,40.77486666568879,-73.950868085548,Italian Restaurant
578,Yorkville,40.775929849884875,-73.94711784471826,Ryan's Daughter,42f54f00f964a520cd261fe3,40.77636184768802,-73.95041416919217,Pub
579,Yorkville,40.775929849884875,-73.94711784471826,PuTawn Local Thai Kitchen,57f81d9e498e82d3766ccce8,40.77459861106953,-73.95104174611885,Thai Restaurant
580,Yorkville,40.775929849884875,-73.94711784471826,Yorkafe,5145d153e4b0887518ec0317,40.77385309632133,-73.94825970204658,Coffee Shop
581,Yorkville,40.775929849884875,-73.94711784471826,Pho Shop,57cde924498e8a03be8925a9,40.77866925705594,-73.94811064915139,Vietnamese Restaurant
582,Yorkville,40.775929849884875,-73.94711784471826,East River Promenade,4b9f622af964a5207b1f37e3,40.77491934703723,-73.94288063049316,Park
583,Yorkville,40.775929849884875,-73.94711784471826,AOC East,58d0ac74117420278ee83672,40.77483845717926,-73.95083738094806,Wine Bar
584,Yorkville,40.775929849884875,-73.94711784471826,Regenerate Fitness,520fd4ac11d2e6fddd30df7e,40.77554876714521,-73.94745085692637,Gym / Fitness Center
585,Yorkville,40.775929849884875,-73.94711784471826,European Wax Center,4db094a25da32cf2df4b0faf,40.774382937019936,-73.95125968388328,Health & Beauty Service
586,Yorkville,40.775929849884875,-73.94711784471826,Two Little Red Hens,4a06f82df964a52010731fe3,40.77752327640072,-73.95176142454146,Bakery
587,Yorkville,40.775929849884875,-73.94711784471826,83 1/2,504bb0fae4b0d1cf33ca07d0,40.77520589574406,-73.95123198330161,Italian Restaurant
588,Yorkville,40.775929849884875,-73.94711784471826,Yura On East End,4b8410e1f964a520831e31e3,40.7721984,-73.9470302,Deli / Bodega
589,Yorkville,40.775929849884875,-73.94711784471826,Bondurants,52bfac81498eeba382012f35,40.77711865075638,-73.95204331058143,Bar
590,Yorkville,40.775929849884875,-73.94711784471826,Maz Mezcal,49f33ef2f964a520766a1fe3,40.77760379851887,-73.95098240705548,Mexican Restaurant
591,Yorkville,40.775929849884875,-73.94711784471826,Brearley Field House,4c8b8f8b52a98cfacfe736e9,40.77794663322817,-73.94937814314801,Gym
592,Yorkville,40.775929849884875,-73.94711784471826,Emack & Bolio's Ice Cream,4a6fa830f964a520bad61fe3,40.773874901539344,-73.95161656040777,Ice Cream Shop
593,Yorkville,40.775929849884875,-73.94711784471826,Black Star Bakery & Cafe,5c8e4acc947c05002c60ad71,40.774858,-73.948052,Café
594,Yorkville,40.775929849884875,-73.94711784471826,Schaller & Weber,4b2fbd84f964a520dfee24e3,40.77768033358095,-73.95192930892712,Butcher
595,Yorkville,40.775929849884875,-73.94711784471826,Asphalt Green Aquacenter,51280fe4e4b07aedbed347ae,40.77906412196237,-73.94434060835297,Pool
596,Yorkville,40.775929849884875,-73.94711784471826,Logos Bookstore,4ad0cddaf964a520f5d920e3,40.774458,-73.948506,Bookstore
597,Yorkville,40.775929849884875,-73.94711784471826,Schaller's Stube Sausage Bar,557ef6b8498e8dd048cea0db,40.77758765183871,-73.95197452167795,Hot Dog Joint
598,Yorkville,40.775929849884875,-73.94711784471826,Luna Rossa,4dcf3f00d22deadedd682925,40.77654404044222,-73.95032631591812,Italian Restaurant
599,Yorkville,40.775929849884875,-73.94711784471826,Asphalt Green,4a6f77a1f964a5203ed61fe3,40.779061977935854,-73.9440952293109,Gym
600,Yorkville,40.775929849884875,-73.94711784471826,Italianissimo Ristorante,4b651459f964a52030e32ae3,40.77635051699617,-73.95217891729662,Italian Restaurant
601,Yorkville,40.775929849884875,-73.94711784471826,Regenerate 82,576bc127498ec2cf804a6272,40.773077690538436,-73.94832704446911,Gym
602,Yorkville,40.775929849884875,-73.94711784471826,Heidelberg Restaurant,439e1fd8f964a520092c1fe3,40.77753193843934,-73.95197880439615,German Restaurant
603,Yorkville,40.775929849884875,-73.94711784471826,The Art Farm In the City,4d459f1614aa8cfa6434743d,40.7795505,-73.9452127,Daycare
604,Yorkville,40.775929849884875,-73.94711784471826,Bareburger,51f194b7498e5ea7b6458f78,40.77776399957451,-73.94903864903887,Burger Joint
605,Yorkville,40.775929849884875,-73.94711784471826,Cafe Jax,5332e4bf498e5d5ac7992223,40.7761234,-73.951838,Coffee Shop
606,Yorkville,40.775929849884875,-73.94711784471826,Chase Bank,4b073450f964a52091f922e3,40.776301,-73.947191,Bank
607,Yorkville,40.775929849884875,-73.94711784471826,Elio's,4b981d9af964a520802d35e3,40.7767829340134,-73.95273640751839,Italian Restaurant
608,Yorkville,40.775929849884875,-73.94711784471826,Caledonia Bar,4d5875df36d1721ee134f7b1,40.77625399201635,-73.95289944413288,Bar
609,Yorkville,40.775929849884875,-73.94711784471826,Inase Sushi,4bc11982b492d13ad88fa560,40.77460731028703,-73.95099236513252,Japanese Restaurant
610,Yorkville,40.775929849884875,-73.94711784471826,Conmigo,59125f8189e4907f68b07815,40.777759891371495,-73.94876442340068,Mexican Restaurant
611,Yorkville,40.775929849884875,-73.94711784471826,Miss Madeleine,59173efa0313205133392948,40.774051,-73.951013,Dessert Shop
612,Yorkville,40.775929849884875,-73.94711784471826,Van Leeuwen Ice Cream,5b4f75d2829b0c002c82f08e,40.776976,-73.952798,Ice Cream Shop
613,Yorkville,40.775929849884875,-73.94711784471826,Pio Pio,4a1a1373f964a5207e7a1fe3,40.779887080282116,-73.94720193653723,Peruvian Restaurant
614,Yorkville,40.775929849884875,-73.94711784471826,Luigi's Pizzeria,4b2ede2cf964a520aae724e3,40.778221772532305,-73.94842554164335,Pizza Place
615,Yorkville,40.775929849884875,-73.94711784471826,Cafe D'Alsace,467ffefcf964a52019481fe3,40.77915220371584,-73.95106941461563,French Restaurant
616,Yorkville,40.775929849884875,-73.94711784471826,Mellow Yellow - coffee & vibes,58b2f2f60037eb7f1a778535,40.77920486239496,-73.94770099915985,Coffee Shop
617,Yorkville,40.775929849884875,-73.94711784471826,Ichiro,4b3fdfc8f964a5200ab125e3,40.778901,-73.950843,Japanese Restaurant
618,Yorkville,40.775929849884875,-73.94711784471826,Supercuts,4c6ffd24b5a5236aa3b94e52,40.777069591935984,-73.95229940298006,Salon / Barbershop
619,Yorkville,40.775929849884875,-73.94711784471826,PQR,5aaaf5b18b98fd3a06885687,40.77706681082764,-73.95235840357438,Pizza Place
620,Yorkville,40.775929849884875,-73.94711784471826,Tal Bagels,4b87ed02f964a52048d331e3,40.77743578787131,-73.95046600614467,Bagel Shop
621,Yorkville,40.775929849884875,-73.94711784471826,Gymtime,4b65cd15f964a52089002be3,40.77199212174999,-73.94956521462328,Gym
622,Yorkville,40.775929849884875,-73.94711784471826,Moving Strength TRX/Pilates Studio,4f088475e4b026656e49cd93,40.774547019372655,-73.95186601526352,Gym
623,Yorkville,40.775929849884875,-73.94711784471826,St. Stephen's Greenmarket,4a902f58f964a520641620e3,40.773982295256566,-73.95073475179325,Farmers Market
624,Yorkville,40.775929849884875,-73.94711784471826,La Pulperia,54178ea6498ee6e41f282042,40.776612,-73.952279,Latin American Restaurant
625,Yorkville,40.775929849884875,-73.94711784471826,U Don't Know Nothing Produce (Beyoglu),4ad0cbd6f964a520e0d920e3,40.7747694,-73.948175,Gourmet Shop
626,Yorkville,40.775929849884875,-73.94711784471826,Vietnaam,52e54ed3498ed43181ee85b0,40.77919770424128,-73.95073107424153,Vietnamese Restaurant
627,Yorkville,40.775929849884875,-73.94711784471826,Donguri Restaurant,4bd0fe22a8b3a593a123655f,40.77567809157289,-73.95247826645596,Japanese Restaurant
628,Yorkville,40.775929849884875,-73.94711784471826,La Mia Pizza,59f7c2b081635b511fbdbe9b,40.7744569816882,-73.95119502334224,Pizza Place
629,Yorkville,40.775929849884875,-73.94711784471826,Prince Tea House,5af0b04e6adbf5002cc2eba7,40.772524,-73.949957,Tea Room
630,Yorkville,40.775929849884875,-73.94711784471826,Jing Beauty Spa,4ddc218b1838306b81ff76d0,40.77501350584493,-73.9505885976854,Spa
631,Yorkville,40.775929849884875,-73.94711784471826,Mumtaz,4e221f671495f18f035610f6,40.7741338,-73.9482272,Indian Restaurant
632,Yorkville,40.775929849884875,-73.94711784471826,Eastside Cellars,5158a4bde4b0862f1509b1f5,40.779651252124225,-73.94742455350139,Wine Shop
633,Yorkville,40.775929849884875,-73.94711784471826,Sushi Suki,4a9b12eef964a5204e3420e3,40.774487478793816,-73.94821073470443,Sushi Restaurant
634,Yorkville,40.775929849884875,-73.94711784471826,The Supply House,5202340b498e2a22f0d56432,40.7775779,-73.952268,Bar
635,Yorkville,40.775929849884875,-73.94711784471826,Polish Nail Salon,4b1ad1baf964a52081f223e3,40.7757911457752,-73.95031891699557,Nail Salon
636,Yorkville,40.775929849884875,-73.94711784471826,Duane Reade,4bb1562ff964a520348d3ce3,40.77640615851943,-73.94701391458511,Pharmacy
637,Yorkville,40.775929849884875,-73.94711784471826,Little Frog,57d9a99a498e9392cfa1d963,40.77747610699544,-73.9508323752662,Bistro
638,Yorkville,40.775929849884875,-73.94711784471826,Au Jus,51ae75e0498ef95bfa1e210e,40.7803867264066,-73.94686316062513,Sandwich Place
639,Yorkville,40.775929849884875,-73.94711784471826,Yorkville Tennis Club,4ace7e0df964a520dfd020e3,40.778263475536534,-73.94628938563997,Athletics & Sports
640,Yorkville,40.775929849884875,-73.94711784471826,Noodle Fun,536e6f06498eaee664b4938e,40.779794780733674,-73.94745425283135,Chinese Restaurant
641,Yorkville,40.775929849884875,-73.94711784471826,Sumela Mediterranean Cafe & Grill,598085d9ee628b12e387482a,40.77511653246908,-73.95064219716679,Turkish Restaurant
642,Yorkville,40.775929849884875,-73.94711784471826,Nyc Elite gymnastics,4bc8930f8b7c9c74706238cf,40.77946493447631,-73.94557580617723,Gymnastics Gym
643,Yorkville,40.775929849884875,-73.94711784471826,Sabor a Mexico,4c1fbbd9b4e62d7f2c19e093,40.77969059162157,-73.94735381055648,Mexican Restaurant
644,Yorkville,40.775929849884875,-73.94711784471826,Williamsburg Pizza,5c916cdfcad1b600394189ff,40.776753,-73.952763,Pizza Place
645,Yorkville,40.775929849884875,-73.94711784471826,The Writing Room,52373a1411d27541297b921e,40.779401063600716,-73.95069832371163,New American Restaurant
646,Yorkville,40.775929849884875,-73.94711784471826,Bar Felice,5255afa58bbdabf2640f3953,40.774759504088095,-73.95091626395565,Lounge
647,Yorkville,40.775929849884875,-73.94711784471826,First on First Deli,4bae5d09f964a52029a83be3,40.78011535641353,-73.9468961275185,Deli / Bodega
648,Yorkville,40.775929849884875,-73.94711784471826,Gracie Mews Diner,4a3d4791f964a5200ea21fe3,40.77353688350828,-73.9517811929898,Diner
649,Yorkville,40.775929849884875,-73.94711784471826,Five Mile Stone,52f287cc11d26849c4522392,40.77724623519559,-73.95218284225118,Bar
650,Yorkville,40.775929849884875,-73.94711784471826,Ethyl's Alcohol & Food,5734fe3f498ed7cf0dd66fef,40.77699064154686,-73.95237618153155,Bar
651,Yorkville,40.775929849884875,-73.94711784471826,Dorian's Seafood Market,4c06e4f692a4ef3b9b22b0f1,40.774035,-73.948175,Fish Market
652,Yorkville,40.775929849884875,-73.94711784471826,Yummy Sushi,4bce0d1129d4b71315dca7dc,40.780214114821035,-73.94701196956478,Sushi Restaurant
653,Yorkville,40.775929849884875,-73.94711784471826,Serendipity Nails & Spa,4b0049bbf964a520573c22e3,40.776830551170484,-73.95244360707173,Spa
654,Yorkville,40.775929849884875,-73.94711784471826,Oren's Daily Roast,49d77c64f964a520295d1fe3,40.77426112970503,-73.95139412608984,Coffee Shop
655,Yorkville,40.775929849884875,-73.94711784471826,Pinocchio Ristorante,4bd223c941b9ef3b4770fde5,40.77985218985338,-73.94722321673736,Italian Restaurant
656,Yorkville,40.775929849884875,-73.94711784471826,Starbucks,4b69efa9f964a52014bd2be3,40.772356,-73.949984,Coffee Shop
657,Yorkville,40.775929849884875,-73.94711784471826,Green Kitchen,5bea1524a8eb6000390b252e,40.776597798373935,-73.95271457810559,Diner
658,Lenox Hill,40.76811265828733,-73.9588596881376,Whiskey & Wine Off 69,5230a2787e48c8a77ab092d3,40.76727170418045,-73.95954398347956,Liquor Store
659,Lenox Hill,40.76811265828733,-73.9588596881376,sweetgreen,57c4e77c498e9a06f6c279df,40.76712827653142,-73.95684622228146,Salad Place
660,Lenox Hill,40.76811265828733,-73.9588596881376,Up Thai,52be229211d2aabfe6f24d20,40.76989759006919,-73.9575976933572,Thai Restaurant
661,Lenox Hill,40.76811265828733,-73.9588596881376,Cigar Inn,4bb63a4f2ea195218555ab2f,40.76877634685164,-73.95622190002375,Smoke Shop
662,Lenox Hill,40.76811265828733,-73.9588596881376,Mission Ceviche,5d200a5f9661660023210e4c,40.769218,-73.957901,Restaurant
663,Lenox Hill,40.76811265828733,-73.9588596881376,Marymount Manhattan College,4acbb3f4f964a52008c520e3,40.769232464055726,-73.95965795209456,College Academic Building
664,Lenox Hill,40.76811265828733,-73.9588596881376,Anthropologie,4f25c041e4b0b2f990cd8fc3,40.76929584181941,-73.96108483574552,Women's Store
665,Lenox Hill,40.76811265828733,-73.9588596881376,Donna Margherita,5893583c1470b050ba899197,40.766452,-73.959905,Pizza Place
666,Lenox Hill,40.76811265828733,-73.9588596881376,A Matter of Health,5197866e498e42d10b808036,40.76802836725529,-73.95593309596553,Health Food Store
667,Lenox Hill,40.76811265828733,-73.9588596881376,La Esquina,590baee1cab410306bf495b2,40.76945123405223,-73.95778164213363,Taco Place
668,Lenox Hill,40.76811265828733,-73.9588596881376,Bohemian Spirit Restaurant,57116e43498ea9ddf52b2b60,40.7691142,-73.9565393,Czech Restaurant
669,Lenox Hill,40.76811265828733,-73.9588596881376,Equinox East 74th Street,4ac13d5ff964a5205b9620e3,40.77046,-73.957387,Gym
670,Lenox Hill,40.76811265828733,-73.9588596881376,5 Napkin Burger,54f03650498ee77ce407e052,40.7674315,-73.9596625,Burger Joint
671,Lenox Hill,40.76811265828733,-73.9588596881376,Afghan Kebab House II,4b22ec71f964a520685024e3,40.76802139999999,-73.95915719999999,Afghan Restaurant
672,Lenox Hill,40.76811265828733,-73.9588596881376,Persepolis,4a11c8c7f964a52045771fe3,40.76977157453949,-73.95761617804439,Middle Eastern Restaurant
673,Lenox Hill,40.76811265828733,-73.9588596881376,The Sweet Shop NYC,5233a20a11d268060fec7882,40.768295325636124,-73.95500318463608,Dessert Shop
674,Lenox Hill,40.76811265828733,-73.9588596881376,Bohemian National Hall,4af8ec92f964a520921022e3,40.76900288892712,-73.95666596661471,Art Gallery
675,Lenox Hill,40.76811265828733,-73.9588596881376,THEP Thai Restaurant,5997796d603d2a7019b8c58e,40.770743347003574,-73.95705953980662,Thai Restaurant
676,Lenox Hill,40.76811265828733,-73.9588596881376,Grace's Marketplace,54c2c3f4498e3fefe926deaf,40.76644352861987,-73.96025559386517,Gourmet Shop
677,Lenox Hill,40.76811265828733,-73.9588596881376,Flying Tiger Copenhagen,57124d59cd103d006f6bb417,40.770898319516576,-73.95993055564092,Gift Shop
678,Lenox Hill,40.76811265828733,-73.9588596881376,Refine Method,4d2873d277a2a1cdec6262b7,40.76731526713521,-73.9568866274976,Gym
679,Lenox Hill,40.76811265828733,-73.9588596881376,CYC Fitness,58b769a6ef46945fb46dc7a2,40.768987784829804,-73.9607971294755,Cycle Studio
680,Lenox Hill,40.76811265828733,-73.9588596881376,Journelle,4f5e8586e4b0a91e3090a318,40.77040141443128,-73.96018265489835,Lingerie Store
681,Lenox Hill,40.76811265828733,-73.9588596881376,J.G. Melon,3fd66200f964a52044ea1ee3,40.77105,-73.95931,Burger Joint
682,Lenox Hill,40.76811265828733,-73.9588596881376,T-Bar Steak & Lounge,4b81b128f964a5202bb830e3,40.770634172936816,-73.96000318896644,Cocktail Bar
683,Lenox Hill,40.76811265828733,-73.9588596881376,Kome Waza UES,5aa1d85d5f68b931b6f5acda,40.765601636058776,-73.95740334822048,Japanese Restaurant
684,Lenox Hill,40.76811265828733,-73.9588596881376,The Fhitting Room Penthouse,5578b383498ecd5646bda7fd,40.766466038164914,-73.96262874941318,Gym
685,Lenox Hill,40.76811265828733,-73.9588596881376,Maison Kayser,4fc95a1ee4b0f9aeca457705,40.77131932572194,-73.95959246401709,Bakery
686,Lenox Hill,40.76811265828733,-73.9588596881376,The P.E. Club,535f9718498e0065d0064574,40.77101827851563,-73.95761331851189,Gym / Fitness Center
687,Lenox Hill,40.76811265828733,-73.9588596881376,SLT E 67,53fca936498ea1afe5b91da9,40.766508,-73.962584,Gym / Fitness Center
688,Lenox Hill,40.76811265828733,-73.9588596881376,Millesima,4af5d339f964a5205efd21e3,40.76843972953615,-73.95866210214402,Wine Shop
689,Lenox Hill,40.76811265828733,-73.9588596881376,Jean Claude II,4f5977dee4b0e4b75e4295d6,40.767935,-73.959209,French Restaurant
690,Lenox Hill,40.76811265828733,-73.9588596881376,Flywheel Sports,4d6fd49071d3a14384054250,40.7664934,-73.9624749,Cycle Studio
691,Lenox Hill,40.76811265828733,-73.9588596881376,Dr. Wine,5186bce2498ec9a9d0378f9d,40.766071126880135,-73.95711924412988,Wine Shop
692,Lenox Hill,40.76811265828733,-73.9588596881376,B. Cafe - East,4bf2d0e2354e9c744b802602,40.77095251409253,-73.9576186318982,Café
693,Lenox Hill,40.76811265828733,-73.9588596881376,Paper Source,53de66c2498e35941ac3795b,40.77150016132978,-73.9594352363973,Paper / Office Supplies Store
